CarParkID: TM36
Address: BLK 515 TAMPINES CENTRAL 7
CarParkType: MULTI-STOREY CAR PARK
Latitude: 1.357162
Longitude: 103.939073
LotType:  C
	TotalLots: 225
	AvailableLots: 56
-----------------------------------
CarParkID: SK87
Address: BLK 448 SENGKANG WEST WAY
CarParkType: MULTI-STOREY CAR PARK
Latitude: 1.393151
Longitude: 103.873122
LotType:  C
	TotalLots: 115
	AvailableLots: 37
-----------------------------------
CarParkID: W586
Address: BLK 586A WOODLANDS DRIVE 16
CarParkType: MULTI-STOREY CAR PARK
Latitude: 1.429176
Longitude: 103.794700
LotType:  C
	TotalLots: 360
	AvailableLots: 213
-----------------------------------
CarParkID: MP2M
Address: BLK 35A MARINE CRESCENT
CarParkType: MULTI-STOREY CAR PARK
Latitude: 1.303636
Longitude: 103.912879
LotType:  H
	TotalLots: 50
	AvailableLots: 0
LotType:  Y
	TotalLots: 154
	AvailableLots: 115
LotType:  C
	TotalLots: 616
	AvailableLots: 312
-----------------------------------
CarParkID: TJ37
Address: BLK 337 TAH CHING ROAD
CarParkType: MULTI-STOREY CAR PARK
Latitude: 1.338282
Longitude: 103.722528
LotType:  C
	TotalLots: 384
	AvailableLots: 384
-----------------------------------
CarParkID: W51
Address: BLK 866A WOODLANDS STREET 83
CarParkType: MULTI-STOREY CAR PARK
Latitude: 1.442289
Longitude: 103.792635
LotType:  C
	TotalLots: 304
	AvailableLots: 242
-----------------------------------
CarParkID: MR6
Address: BLK 8 FRENCH ROAD
CarParkType: SURFACE CAR PARK
Latitude: 1.307167
Longitude: 103.860536
LotType:  C
	TotalLots: 105
	AvailableLots: 45
-----------------------------------
CarParkID: BJ12
Address: BLK 246-255 BANGKIT ROAD
CarParkType: SURFACE CAR PARK
Latitude: 1.380253
Longitude: 103.774488
LotType:  C
	TotalLots: 550
	AvailableLots: 120
-----------------------------------
CarParkID: PR8
Address: BLK 456/461 PASIR RIS DRIVE 4
CarParkType: SURFACE CAR PARK
Latitude: 1.371267
Longitude: 103.959574
LotType:  C
	TotalLots: 158
	AvailableLots: 7
-----------------------------------
CarParkID: W676
Address: BLK 676 WOODLANDS DRIVE 71
CarParkType: BASEMENT CAR PARK
Latitude: 1.439762
Longitude: 103.800732
LotType:  C
	TotalLots: 206
	AvailableLots: 185
-----------------------------------
CarParkID: W98
Address: BLK 681 WOODLANDS DRIVE 62
CarParkType: MULTI-STOREY CAR PARK
Latitude: 1.439597
Longitude: 103.803503
LotType:  C
	TotalLots: 1494
	AvailableLots: 930
-----------------------------------
CarParkID: SPM
Address: BLK 108 SPOTTISWOODE PARK MSCP
CarParkType: MULTI-STOREY CAR PARK
Latitude: 1.273925
Longitude: 103.835631
LotType:  C
	TotalLots: 719
	AvailableLots: 548
LotType:  H
	TotalLots: 50
	AvailableLots: 50
LotType:  Y
	TotalLots: 51
	AvailableLots: 40
-----------------------------------
CarParkID: JM15
Address: BLK 617A JURONG WEST STREET 65
CarParkType: MULTI-STOREY CAR PARK
Latitude: 1.340888
Longitude: 103.700082
LotType:  C
	TotalLots: 490
	AvailableLots: 338
-----------------------------------
CarParkID: BJ68
Address: BLK 422A FAJAR ROAD
CarParkType: MULTI-STOREY CAR PARK
Latitude: 1.385381
Longitude: 103.769970
LotType:  C
	TotalLots: 253
	AvailableLots: 125
-----------------------------------
CarParkID: A40
Address: BLK 471/476 ANG MO KIO STREET 44
CarParkType: 
Latitude: 1.362356
Longitude: 103.856982
LotType:  C
	TotalLots: 520
	AvailableLots: 298
-----------------------------------
CarParkID: TP15
Address: BLK 53 TO 55 LORONG 5 TOA PAYOH
CarParkType: SURFACE CAR PARK
Latitude: 1.337479
Longitude: 103.850833
LotType:  C
	TotalLots: 85
	AvailableLots: 22
-----------------------------------
CarParkID: TM10
Address: BLK 331A TAMPINES STREET 32
CarParkType: MULTI-STOREY CAR PARK
Latitude: 1.353353
Longitude: 103.960255
LotType:  C
	TotalLots: 287
	AvailableLots: 67
-----------------------------------
CarParkID: TB9
Address: BLK 32/35 TELOK BLANGAH RISE
CarParkType: SURFACE CAR PARK
Latitude: 1.273288
Longitude: 103.822233
LotType:  C
	TotalLots: 77
	AvailableLots: 4
LotType:  Y
	TotalLots: 45
	AvailableLots: 34
LotType:  H
	TotalLots: 100
	AvailableLots: 0
-----------------------------------
CarParkID: BE26
Address: BLK 207/212/216/217 BISHAN STREET 23
CarParkType: SURFACE CAR PARK
Latitude: 1.355895
Longitude: 103.848456
LotType:  C
	TotalLots: 65
	AvailableLots: 16
-----------------------------------
CarParkID: S0150
Address: SULTAN GATE - ALIWAL STREET OFF STREET
CarParkType: SURFACE CAR PARK
Latitude: 1.302455
Longitude: 103.860588
LotType:  C
	TotalLots: 
	AvailableLots: 37
-----------------------------------
CarParkID: TM26
Address: BLK 497K TAMPINES STREET 45
CarParkType: MULTI-STOREY CAR PARK
Latitude: 1.359826
Longitude: 103.959625
LotType:  C
	TotalLots: 124
	AvailableLots: 26
-----------------------------------
CarParkID: AM96
Address: BLK 352A ANG MO KIO STREET 32
CarParkType: MULTI-STOREY CAR PARK
Latitude: 1.364073
Longitude: 103.850940
LotType:  C
	TotalLots: 525
	AvailableLots: 249
-----------------------------------
CarParkID: PM13
Address: BLK 199A PASIR RIS STREET 12
CarParkType: MULTI-STOREY CAR PARK
Latitude: 1.366473
Longitude: 103.959597
LotType:  C
	TotalLots: 435
	AvailableLots: 95
-----------------------------------
CarParkID: KM3
Address: BLK 11A PINE CLOSE
CarParkType: MULTI-STOREY CAR PARK
Latitude: 1.308517
Longitude: 103.882928
LotType:  C
	TotalLots: 535
	AvailableLots: 331
LotType:  Y
	TotalLots: 85
	AvailableLots: 61
LotType:  H
	TotalLots: 50
	AvailableLots: 0
-----------------------------------
CarParkID: A50
Address: BLK 548/552/556 ANG MO KIO STREET 54
CarParkType: 
Latitude: 1.372522
Longitude: 103.857610
LotType:  C
	TotalLots: 206
	AvailableLots: 40
-----------------------------------
CarParkID: A70
Address: BLK 629/626 ANG MO KIO AVENUE 4
CarParkType: 
Latitude: 1.380621
Longitude: 103.840107
LotType:  C
	TotalLots: 134
	AvailableLots: 114
-----------------------------------
CarParkID: TGM2
Address: BLK 61 TEBAN GARDENS ROAD
CarParkType: MULTI-STOREY CAR PARK
Latitude: 1.322144
Longitude: 103.738294
LotType:  C
	TotalLots: 189
	AvailableLots: 115
-----------------------------------
CarParkID: WGL
Address: BLK 781 TO 783 WOODLANDS AVENUE 9/CRESCENT/RISE
CarParkType: SURFACE CAR PARK
Latitude: 1.447133
Longitude: 103.804164
LotType:  C
	TotalLots: 390
	AvailableLots: 43
-----------------------------------
CarParkID: S14L
Address: 353A-353B,355A,356A-356B ANCHORVALE LANE
CarParkType: SURFACE CAR PARK
Latitude: 1.393567
Longitude: 103.884287
LotType:  C
	TotalLots: 9
	AvailableLots: 6
-----------------------------------
CarParkID: SI3
Address: BLK 117/119 SIMEI STREET 1
CarParkType: SURFACE CAR PARK
Latitude: 1.344565
Longitude: 103.952026
-----------------------------------
CarParkID: TB27
Address: BLK 4001-4008 DEPOT LANE
CarParkType: SURFACE CAR PARK
Latitude: 1.281923
Longitude: 103.811716
-----------------------------------
CarParkID: 24
Address: 313@Somerset
CarParkType: MULTI-STOREY CAR PARK
Latitude: 1.300840
Longitude: 103.838720
LotType:  C
	TotalLots: 
	AvailableLots: 204
-----------------------------------
CarParkID: BJ2
Address: BLK 141-151 GANGSA ROAD/PETIR ROAD
CarParkType: 
Latitude: 1.376135
Longitude: 103.766661
LotType:  C
	TotalLots: 475
	AvailableLots: 164
-----------------------------------
CarParkID: SE38
Address: BLK 504A SERANGOON NORTH AVENUE 4
CarParkType: MULTI-STOREY CAR PARK
Latitude: 1.373953
Longitude: 103.875715
LotType:  C
	TotalLots: 442
	AvailableLots: 245
-----------------------------------
CarParkID: SK72
Address: BLK 272 SENGKANG CENTRAL
CarParkType: BASEMENT CAR PARK
Latitude: 1.385141
Longitude: 103.893888
LotType:  C
	TotalLots: 200
	AvailableLots: 37
-----------------------------------
CarParkID: P35L
Address: PUNGGOL CENTRAL
CarParkType: SURFACE CAR PARK
Latitude: 1.402241
Longitude: 103.907622
LotType:  C
	TotalLots: 4
	AvailableLots: 0
-----------------------------------
CarParkID: T76
Address: BLK 433/443 TAMPINES STREET 43
CarParkType: SURFACE CAR PARK
Latitude: 1.360167
Longitude: 103.951642
LotType:  C
	TotalLots: 322
	AvailableLots: 86
-----------------------------------
CarParkID: N0013
Address: NORTH BRIDGE ROAD OFF STREET
CarParkType: SURFACE CAR PARK
Latitude: 1.300400
Longitude: 103.856647
LotType:  C
	TotalLots: 
	AvailableLots: 0
-----------------------------------
CarParkID: A34
Address: BLK 422/425 ANG MO KIO STREET 42
CarParkType: 
Latitude: 1.368356
Longitude: 103.851667
LotType:  C
	TotalLots: 220
	AvailableLots: 93
-----------------------------------
CarParkID: BJ55
Address: BLK 625A SENJA ROAD
CarParkType: MULTI-STOREY CAR PARK
Latitude: 1.386282
Longitude: 103.760777
LotType:  C
	TotalLots: 873
	AvailableLots: 514
-----------------------------------
CarParkID: J83M
Address: BLK 865A JURONG WEST STREET 81
CarParkType: MULTI-STOREY CAR PARK
Latitude: 1.350220
Longitude: 103.695064
LotType:  C
	TotalLots: 172
	AvailableLots: 50
-----------------------------------
CarParkID: W109
Address: BLK 764B WOODLANDS CIRCLE
CarParkType: SURFACE CAR PARK
Latitude: 1.445022
Longitude: 103.797336
LotType:  C
	TotalLots: 22
	AvailableLots: 8
-----------------------------------
CarParkID: CK44
Address: BLK 762A CHOA CHU KANG NORTH 5
CarParkType: MULTI-STOREY CAR PARK
Latitude: 1.392588
Longitude: 103.749136
LotType:  C
	TotalLots: 285
	AvailableLots: 121
-----------------------------------
CarParkID: SK58
Address: BLK 413 FERNVALE LINK
CarParkType: MULTI-STOREY CAR PARK
Latitude: 1.389444
Longitude: 103.878212
LotType:  C
	TotalLots: 1164
	AvailableLots: 620
-----------------------------------
CarParkID: AR5M
Address: BLK 19A DOVER CRESCENT
CarParkType: MULTI-STOREY CAR PARK
Latitude: 1.307343
Longitude: 103.784463
LotType:  C
	TotalLots: 419
	AvailableLots: 213
LotType:  Y
	TotalLots: 128
	AvailableLots: 74
LotType:  H
	TotalLots: 1
	AvailableLots: 50
-----------------------------------
CarParkID: A57
Address: BLK 720/723 ANG MO KIO AVENUE 8
CarParkType: SURFACE CAR PARK
Latitude: 1.372019
Longitude: 103.846964
-----------------------------------
CarParkID: B12
Address: BLK 420/421 BEDOK NORTH STREET 1
CarParkType: SURFACE CAR PARK
Latitude: 1.327598
Longitude: 103.927878
-----------------------------------
CarParkID: A0046
Address: ALJUNIED ROAD OFF STREET
CarParkType: SURFACE CAR PARK
Latitude: 1.313893
Longitude: 103.881788
LotType:  C
	TotalLots: 
	AvailableLots: 6
-----------------------------------
CarParkID: PL23
Address: BLK 201 PUNGGOL FIELD
CarParkType: MULTI-STOREY CAR PARK
Latitude: 1.399766
Longitude: 103.903688
LotType:  C
	TotalLots: 445
	AvailableLots: 230
-----------------------------------
CarParkID: DWSP
Address: BLK 95A DAWSON ROAD
CarParkType: MULTI-STOREY CAR PARK
Latitude: 1.296073
Longitude: 103.811934
LotType:  C
	TotalLots: 604
	AvailableLots: 341
LotType:  H
	TotalLots: 50
	AvailableLots: 50
LotType:  Y
	TotalLots: 131
	AvailableLots: 54
-----------------------------------
CarParkID: Q51
Address: BLK 39 TANGLIN HALT ROAD
CarParkType: SURFACE CAR PARK
Latitude: 1.297932
Longitude: 103.799062
-----------------------------------
CarParkID: TJ18
Address: BLK 63-66 YUNG KUANG ROAD
CarParkType: SURFACE CAR PARK
Latitude: 1.331811
Longitude: 103.722631
-----------------------------------
CarParkID: B88
Address: BLK 34A BED0K SOUTH AVENUE 2
CarParkType: 
Latitude: 1.322273
Longitude: 103.938299
LotType:  C
	TotalLots: 385
	AvailableLots: 161
-----------------------------------
CarParkID: KB10
Address: BLK 30 BENDEMEER ROAD
CarParkType: SURFACE CAR PARK
Latitude: 1.318903
Longitude: 103.863592
LotType:  C
	TotalLots: 164
	AvailableLots: 105
-----------------------------------
CarParkID: AM19
Address: BLK 260 ANG MO KIO STREET 21
CarParkType: MULTI-STOREY CAR PARK
Latitude: 1.368886
Longitude: 103.834531
LotType:  C
	TotalLots: 300
	AvailableLots: 102
-----------------------------------
CarParkID: MM7L
Address: BLK 76A CIRCUIT ROAD
CarParkType: SURFACE CAR PARK
Latitude: 1.325257
Longitude: 103.888835
LotType:  C
	TotalLots: 2
	AvailableLots: 2
-----------------------------------
CarParkID: SK49
Address: BLK 319 ANCHORVALE DRIVE
CarParkType: MULTI-STOREY CAR PARK
Latitude: 1.390512
Longitude: 103.890455
LotType:  Y
	TotalLots: 120
	AvailableLots: 99
LotType:  H
	TotalLots: 10
	AvailableLots: 10
LotType:  C
	TotalLots: 483
	AvailableLots: 388
-----------------------------------
CarParkID: JB1
Address: BLK 3-5,7,8,4A JALAN BATU
CarParkType: SURFACE CAR PARK
Latitude: 1.302401
Longitude: 103.882786
LotType:  C
	TotalLots: 70
	AvailableLots: 4
LotType:  H
	TotalLots: 50
	AvailableLots: 50
LotType:  Y
	TotalLots: 80
	AvailableLots: 58
-----------------------------------
CarParkID: TM31
Address: BLK 716A TAMPINES STREET 71
CarParkType: MULTI-STOREY CAR PARK
Latitude: 1.358751
Longitude: 103.936655
LotType:  C
	TotalLots: 826
	AvailableLots: 254
-----------------------------------
CarParkID: A0011
Address: ARMENIAN STREET OFF STREET
CarParkType: SURFACE CAR PARK
Latitude: 1.293926
Longitude: 103.848866
LotType:  C
	TotalLots: 
	AvailableLots: 45
-----------------------------------
CarParkID: MP5M
Address: BLK 47A MARINE CRESCENT
CarParkType: MULTI-STOREY CAR PARK
Latitude: 1.305447
Longitude: 103.912478
LotType:  C
	TotalLots: 159
	AvailableLots: 5
LotType:  Y
	TotalLots: 40
	AvailableLots: 20
LotType:  H
	TotalLots: 159
	AvailableLots: 0
-----------------------------------
CarParkID: W104
Address: BLK 688 WOODLANDS DRIVE 75
CarParkType: MULTI-STOREY CAR PARK
Latitude: 1.443974
Longitude: 103.807538
LotType:  C
	TotalLots: 696
	AvailableLots: 475
-----------------------------------
CarParkID: PM10
Address: BLK 204A PASIR RIS STREET 21
CarParkType: MULTI-STOREY CAR PARK
Latitude: 1.366746
Longitude: 103.962474
LotType:  C
	TotalLots: 355
	AvailableLots: 89
-----------------------------------
CarParkID: TM29
Address: BLK 498C TAMPINES STREET 45
CarParkType: MULTI-STOREY CAR PARK
Latitude: 1.360685
Longitude: 103.959108
LotType:  C
	TotalLots: 267
	AvailableLots: 89
-----------------------------------
CarParkID: Y17
Address: BLK 243/257 YISHUN RING ROAD/AVENUE 9
CarParkType: SURFACE CAR PARK
Latitude: 1.435063
Longitude: 103.841161
LotType:  C
	TotalLots: 459
	AvailableLots: 158
-----------------------------------
CarParkID: W84
Address: BLK 614A WOODLANDS AVENUE 4
CarParkType: MULTI-STOREY CAR PARK
Latitude: 1.434835
Longitude: 103.795916
LotType:  C
	TotalLots: 499
	AvailableLots: 233
-----------------------------------
CarParkID: HG93
Address: BLK 980 BUANGKOK CRESCENT
CarParkType: MULTI-STOREY CAR PARK
Latitude: 1.379978
Longitude: 103.880117
LotType:  C
	TotalLots: 905
	AvailableLots: 427
-----------------------------------
CarParkID: U27
Address: BLK 371-373 BUKIT BATOK STREET 31
CarParkType: SURFACE CAR PARK
Latitude: 1.359592
Longitude: 103.751065
LotType:  C
	TotalLots: 20
	AvailableLots: 18
-----------------------------------
CarParkID: BL13
Address: BLK 198/206 BOON LAY DRIVE
CarParkType: SURFACE CAR PARK
Latitude: 1.344692
Longitude: 103.715035
LotType:  C
	TotalLots: 413
	AvailableLots: 190
-----------------------------------
CarParkID: J89M
Address: BLK 691A JURONG WEST CENTRAL 1
CarParkType: MULTI-STOREY CAR PARK
Latitude: 1.342375
Longitude: 103.705900
LotType:  C
	TotalLots: 591
	AvailableLots: 371
-----------------------------------
CarParkID: CV4
Address: BLK 6 CHANGI VILLAGE ROAD
CarParkType: SURFACE CAR PARK
Latitude: 1.390170
Longitude: 103.988454
-----------------------------------
CarParkID: KAM
Address: BLK 335 KRETA AYER MSCP
CarParkType: MULTI-STOREY CAR PARK
Latitude: 1.281954
Longitude: 103.843299
LotType:  C
	TotalLots: 396
	AvailableLots: 316
-----------------------------------
CarParkID: BRM5
Address: BLK 19A JALAN TENTERAM
CarParkType: MULTI-STOREY CAR PARK
Latitude: 1.327517
Longitude: 103.859430
LotType:  C
	TotalLots: 376
	AvailableLots: 180
-----------------------------------
CarParkID: PL55
Address: BLK 261 PUNGGOL WAY
CarParkType: MULTI-STOREY CAR PARK
Latitude: 1.405404
Longitude: 103.896841
LotType:  C
	TotalLots: 364
	AvailableLots: 209
-----------------------------------
CarParkID: S107
Address: BLK 338 ANCHORVALE CRESCENT
CarParkType: MULTI-STOREY CAR PARK
Latitude: 1.399157
Longitude: 103.889704
LotType:  C
	TotalLots: 414
	AvailableLots: 118
-----------------------------------
CarParkID: TE30
Address: BLK 78 & 79 YONG SIAK STREET/MOH GUAN TERRACE
CarParkType: SURFACE CAR PARK
Latitude: 1.282883
Longitude: 103.830196
-----------------------------------
CarParkID: BM20
Address: BLK 89/90 REDHILL CLOSE
CarParkType: SURFACE CAR PARK
Latitude: 1.285247
Longitude: 103.818760
LotType:  C
	TotalLots: 60
	AvailableLots: 36
LotType:  Y
	TotalLots: 24
	AvailableLots: 9
LotType:  H
	TotalLots: 50
	AvailableLots: 50
-----------------------------------
CarParkID: BVM2
Address: BLK 129A BUKIT MERAH VIEW
CarParkType: MULTI-STOREY CAR PARK
Latitude: 1.283492
Longitude: 103.823375
LotType:  C
	TotalLots: 504
	AvailableLots: 408
LotType:  Y
	TotalLots: 112
	AvailableLots: 64
LotType:  H
	TotalLots: 50
	AvailableLots: 50
-----------------------------------
CarParkID: PL37
Address: BLK 614 EDGEFIELD PLAINS
CarParkType: MULTI-STOREY CAR PARK
Latitude: 1.403234
Longitude: 103.909657
LotType:  C
	TotalLots: 234
	AvailableLots: 99
-----------------------------------
CarParkID: C19M
Address: BLK 445 CLEMENTI AVENUE 3
CarParkType: MULTI-STOREY CAR PARK
Latitude: 1.313362
Longitude: 103.763854
LotType:  Y
	TotalLots: 84
	AvailableLots: 61
LotType:  H
	TotalLots: 40
	AvailableLots: 0
LotType:  C
	TotalLots: 439
	AvailableLots: 189
-----------------------------------
CarParkID: PR11
Address: BLK 478/487 PASIR RIS DRIVE 4
CarParkType: SURFACE CAR PARK
Latitude: 1.374457
Longitude: 103.959390
-----------------------------------
CarParkID: SK92
Address: BLK 279 SENGKANG EAST AVENUE
CarParkType: MULTI-STOREY CAR PARK
Latitude: 1.386169
Longitude: 103.892915
LotType:  C
	TotalLots: 296
	AvailableLots: 133
-----------------------------------
CarParkID: T43
Address: BLK 831/841 TAMPINES STREET 83
CarParkType: SURFACE CAR PARK
Latitude: 1.351151
Longitude: 103.934334
LotType:  C
	TotalLots: 224
	AvailableLots: 88
-----------------------------------
CarParkID: Q66
Address: BLK 117 COMMONWEALTH DRIVE
CarParkType: SURFACE CAR PARK
Latitude: 1.306704
Longitude: 103.799497
LotType:  C
	TotalLots: 102
	AvailableLots: 77
LotType:  Y
	TotalLots: 36
	AvailableLots: 31
LotType:  H
	TotalLots: 102
	AvailableLots: 0
-----------------------------------
CarParkID: A74
Address: BLK 646/649 ANG MO KIO STREET 61
CarParkType: 
Latitude: 1.378652
Longitude: 103.843805
LotType:  C
	TotalLots: 185
	AvailableLots: 31
-----------------------------------
CarParkID: KB12
Address: BLK 22/24 SERANGOON ROAD
CarParkType: SURFACE CAR PARK
Latitude: 1.319106
Longitude: 103.861586
LotType:  C
	TotalLots: 181
	AvailableLots: 100
-----------------------------------
CarParkID: W86
Address: BLK 644A WOODLANDS RING ROAD
CarParkType: MULTI-STOREY CAR PARK
Latitude: 1.437361
Longitude: 103.801149
LotType:  C
	TotalLots: 465
	AvailableLots: 286
-----------------------------------
CarParkID: H18
Address: BLK 44A HAVELOCK ROAD
CarParkType: MULTI-STOREY CAR PARK
Latitude: 1.288989
Longitude: 103.826978
LotType:  C
	TotalLots: 336
	AvailableLots: 214
-----------------------------------
CarParkID: DSR2
Address: BLK 37A MARGARET DRIVE
CarParkType: MULTI-STOREY CAR PARK
Latitude: 1.297894
Longitude: 103.805331
LotType:  C
	TotalLots: 616
	AvailableLots: 456
LotType:  H
	TotalLots: 50
	AvailableLots: 0
LotType:  Y
	TotalLots: 100
	AvailableLots: 55
-----------------------------------
CarParkID: Q97
Address: BLK 64 COMMONWEALTH DRIVE
CarParkType: SURFACE CAR PARK
Latitude: 1.299199
Longitude: 103.797385
-----------------------------------
CarParkID: C3M
Address: BLK 416A CLEMENTI AVENUE 1
CarParkType: 
Latitude: 1.309814
Longitude: 103.770131
LotType:  H
	TotalLots: 1
	AvailableLots: 0
LotType:  Y
	TotalLots: 354
	AvailableLots: 294
LotType:  C
	TotalLots: 882
	AvailableLots: 355
-----------------------------------
CarParkID: TP27
Address: BLK 125/126/131 LORONG 2 TOA PAYOH
CarParkType: SURFACE CAR PARK
Latitude: 1.337543
Longitude: 103.845267
LotType:  C
	TotalLots: 233
	AvailableLots: 112
-----------------------------------
CarParkID: SE20
Address: BLK 264 SERANGOON CENTRAL
CarParkType: MULTI-STOREY CAR PARK
Latitude: 1.351577
Longitude: 103.872098
LotType:  C
	TotalLots: 548
	AvailableLots: 528
-----------------------------------
CarParkID: K3T
Address: BLK 17 JALAN EMPAT
CarParkType: SURFACE CAR PARK
Latitude: 1.307580
Longitude: 103.883857
-----------------------------------
CarParkID: YHS
Address: BLK 11/12/13 YORK HILL CAR PARK
CarParkType: SURFACE CAR PARK
Latitude: 1.286500
Longitude: 103.837886
LotType:  C
	TotalLots: 64
	AvailableLots: 37
LotType:  Y
	TotalLots: 55
	AvailableLots: 43
LotType:  H
	TotalLots: 50
	AvailableLots: 0
-----------------------------------
CarParkID: Y71M
Address: BLK 501 YISHUN STREET 51
CarParkType: MULTI-STOREY CAR PARK
Latitude: 1.416522
Longitude: 103.840882
LotType:  C
	TotalLots: 423
	AvailableLots: 129
-----------------------------------
CarParkID: W546
Address: BLK 546A WOODLANDS DRIVE 16
CarParkType: MULTI-STOREY CAR PARK
Latitude: 1.429747
Longitude: 103.793409
LotType:  C
	TotalLots: 631
	AvailableLots: 349
-----------------------------------
CarParkID: JM28
Address: BLK 990 JURONG WEST STREET 93
CarParkType: MULTI-STOREY CAR PARK
Latitude: 1.335327
Longitude: 103.695687
LotType:  C
	TotalLots: 1302
	AvailableLots: 846
-----------------------------------
CarParkID: 52
Address: Orchard Gateway
CarParkType: MULTI-STOREY CAR PARK
Latitude: 1.300480
Longitude: 103.839310
LotType:  C
	TotalLots: 
	AvailableLots: 250
-----------------------------------
CarParkID: JBM
Address: BLK 134A JALAN BUKIT MERAH
CarParkType: MULTI-STOREY CAR PARK
Latitude: 1.279262
Longitude: 103.827188
LotType:  C
	TotalLots: 328
	AvailableLots: 198
LotType:  L
	TotalLots: 0
	AvailableLots: 0
LotType:  M
	TotalLots: 43
	AvailableLots: 16
LotType:  S
	TotalLots: 0
	AvailableLots: 0
-----------------------------------
CarParkID: AM80
Address: BLK 130A ANG MO KIO STREET 12
CarParkType: MULTI-STOREY CAR PARK
Latitude: 1.370646
Longitude: 103.841861
LotType:  C
	TotalLots: 191
	AvailableLots: 61
-----------------------------------
CarParkID: A39
Address: BLK 401/405 ANG MO KIO AVENUE 10
CarParkType: 
Latitude: 1.361151
Longitude: 103.854072
LotType:  C
	TotalLots: 200
	AvailableLots: 58
-----------------------------------
CarParkID: B74
Address: BLK 671A JALAN DAMAI
CarParkType: 
Latitude: 1.332847
Longitude: 103.909055
LotType:  C
	TotalLots: 365
	AvailableLots: 154
-----------------------------------
CarParkID: TB29
Address: BLK 45 & 79 ALONG TELOK BLANGAH DRIVE
CarParkType: SURFACE CAR PARK
Latitude: 1.273135
Longitude: 103.806984
-----------------------------------
CarParkID: BBM5
Address: BLK 290H BUKIT BATOK STREET 24
CarParkType: MULTI-STOREY CAR PARK
Latitude: 1.343242
Longitude: 103.757933
LotType:  C
	TotalLots: 951
	AvailableLots: 382
-----------------------------------
CarParkID: HG50
Address: BLK 534-545 HOUGANG AVENUE 8
CarParkType: SURFACE CAR PARK
Latitude: 1.377331
Longitude: 103.891333
LotType:  C
	TotalLots: 490
	AvailableLots: 118
-----------------------------------
CarParkID: SI6
Address: BLK 132 SIMEI STREET 1
CarParkType: SURFACE CAR PARK
Latitude: 1.346901
Longitude: 103.955625
LotType:  C
	TotalLots: 39
	AvailableLots: 8
-----------------------------------
CarParkID: K0082
Address: KAMPONG BUGIS OFF STRE ET
CarParkType: SURFACE CAR PARK
Latitude: 1.306064
Longitude: 103.867315
LotType:  Y
	TotalLots: 
	AvailableLots: 5
-----------------------------------
CarParkID: A66
Address: BLK 601/604/603 ANG MO KIO AVENUE 5
CarParkType: 
Latitude: 1.380545
Longitude: 103.835661
LotType:  C
	TotalLots: 149
	AvailableLots: 27
-----------------------------------
CarParkID: AR9
Address: BLK 20/22/23 DOVER CRESCENT
CarParkType: 
Latitude: 1.307284
Longitude: 103.783440
LotType:  Y
	TotalLots: 24
	AvailableLots: 12
LotType:  C
	TotalLots: 64
	AvailableLots: 14
LotType:  H
	TotalLots: 1
	AvailableLots: 50
-----------------------------------
CarParkID: BJ66
Address: BLK 634 SENJA ROAD
CarParkType: MULTI-STOREY CAR PARK
Latitude: 1.386248
Longitude: 103.757702
LotType:  C
	TotalLots: 868
	AvailableLots: 611
-----------------------------------
CarParkID: W536
Address: BLK 536A WOODLANDS DRIVE 14
CarParkType: MULTI-STOREY CAR PARK
Latitude: 1.431138
Longitude: 103.791523
LotType:  C
	TotalLots: 326
	AvailableLots: 141
-----------------------------------
CarParkID: CK33
Address: BLK 502A CHOA CHU KANG STREET 51
CarParkType: MULTI-STOREY CAR PARK
Latitude: 1.388697
Longitude: 103.742951
LotType:  C
	TotalLots: 235
	AvailableLots: 82
-----------------------------------
CarParkID: U33
Address: BLKS 535-542 BUKIT BATOK STREET 51/52
CarParkType: SURFACE CAR PARK
Latitude: 1.354978
Longitude: 103.751307
LotType:  C
	TotalLots: 290
	AvailableLots: 67
-----------------------------------
CarParkID: W107
Address: BLK 569A-569B CHAMPIONS WAY
CarParkType: SURFACE CAR PARK
Latitude: 1.429800
Longitude: 103.789597
LotType:  C
	TotalLots: 50
	AvailableLots: 0
-----------------------------------
CarParkID: BM19
Address: BLK 88/89 REDHILL CLOSE
CarParkType: SURFACE CAR PARK
Latitude: 1.285712
Longitude: 103.818702
LotType:  C
	TotalLots: 36
	AvailableLots: 4
LotType:  Y
	TotalLots: 16
	AvailableLots: 7
LotType:  H
	TotalLots: 50
	AvailableLots: 50
-----------------------------------
CarParkID: U11
Address: BLK 166 BUKIT BATOK WEST AVENUE 8
CarParkType: SURFACE CAR PARK
Latitude: 1.347420
Longitude: 103.743303
LotType:  C
	TotalLots: 60
	AvailableLots: 0
LotType:  H
	TotalLots: 60
	AvailableLots: 22
-----------------------------------
CarParkID: 8
Address: The Heeren
CarParkType: MULTI-STOREY CAR PARK
Latitude: 1.302550
Longitude: 103.837390
LotType:  C
	TotalLots: 
	AvailableLots: 152
-----------------------------------
CarParkID: P7
Address: BLK 119 EDGEFIELD PLAINS
CarParkType: 
Latitude: 1.395428
Longitude: 103.906470
LotType:  C
	TotalLots: 896
	AvailableLots: 461
-----------------------------------
CarParkID: SE14
Address: BLK 231/237 SERANGOON AVENUE 3
CarParkType: SURFACE CAR PARK
Latitude: 1.354552
Longitude: 103.869988
LotType:  C
	TotalLots: 187
	AvailableLots: 56
-----------------------------------
CarParkID: W8M
Address: BLK 2A MARSILING DRIVE
CarParkType: MULTI-STOREY CAR PARK
Latitude: 1.440182
Longitude: 103.776347
LotType:  C
	TotalLots: 214
	AvailableLots: 100
-----------------------------------
CarParkID: CR1B
Address: BLK 3 BEACH ROAD
CarParkType: SURFACE CAR PARK
Latitude: 1.304035
Longitude: 103.865358
LotType:  C
	TotalLots: 20
	AvailableLots: 1
-----------------------------------
CarParkID: W574
Address: BLK 574 WOODLANDS DRIVE 16
CarParkType: MULTI-STOREY CAR PARK
Latitude: 1.430588
Longitude: 103.798443
LotType:  C
	TotalLots: 479
	AvailableLots: 233
-----------------------------------
CarParkID: BE3R
Address: BLK 410A SIN MING AVENUE
CarParkType: MULTI-STOREY CAR PARK
Latitude: 1.363185
Longitude: 103.835475
LotType:  C
	TotalLots: 195
	AvailableLots: 99
-----------------------------------
CarParkID: NT11
Address: BLK 637 TAMPINES STREET 62
CarParkType: MULTI-STOREY CAR PARK
Latitude: 1.363717
Longitude: 103.944205
-----------------------------------
CarParkID: Q65A
Address: BLK 96-111 AND 115 COMMONWEALTH CRESCENT
CarParkType: SURFACE CAR PARK
Latitude: 1.307087
Longitude: 103.801138
-----------------------------------
CarParkID: 26
Address: Resorts World Sentosa
CarParkType: MULTI-STOREY CAR PARK
Latitude: 1.256670
Longitude: 103.820120
LotType:  C
	TotalLots: 
	AvailableLots: 2339
-----------------------------------
CarParkID: BE39
Address: BLK 263A BISHAN STREET 22
CarParkType: MULTI-STOREY CAR PARK
Latitude: 1.359196
Longitude: 103.841971
LotType:  C
	TotalLots: 705
	AvailableLots: 34
-----------------------------------
CarParkID: S24L
Address: BLK 507A WELLINGTON CIRCLE
CarParkType: SURFACE CAR PARK
Latitude: 1.453160
Longitude: 103.823704
LotType:  C
	TotalLots: 2
	AvailableLots: 0
-----------------------------------
CarParkID: W694
Address: BLK 694 WOODLANDS DRIVE 62
CarParkType: MULTI-STOREY CAR PARK
Latitude: 1.438042
Longitude: 103.805018
LotType:  C
	TotalLots: 313
	AvailableLots: 174
-----------------------------------
CarParkID: Q95
Address: BLK 98 COMMONWEALTH CRESCENT
CarParkType: SURFACE CAR PARK
Latitude: 1.306719
Longitude: 103.801268
-----------------------------------
CarParkID: 63
Address: Tampines Mall
CarParkType: MULTI-STOREY CAR PARK
Latitude: 1.352524
Longitude: 103.944700
LotType:  C
	TotalLots: 
	AvailableLots: 556
-----------------------------------
CarParkID: M3
Address: BLK 19 TO 21/23/24/30/32 BALAM ROAD
CarParkType: 
Latitude: 1.329868
Longitude: 103.886897
LotType:  C
	TotalLots: 126
	AvailableLots: 2
-----------------------------------
CarParkID: Y45
Address: BLK 343-346 YISHUN AVENUE 11
CarParkType: SURFACE CAR PARK
Latitude: 1.427128
Longitude: 103.843159
LotType:  C
	TotalLots: 223
	AvailableLots: 84
-----------------------------------
CarParkID: PL49
Address: BLK 210 PUNGGOL PLACE
CarParkType: MULTI-STOREY CAR PARK
Latitude: 1.399343
Longitude: 103.900382
LotType:  C
	TotalLots: 114
	AvailableLots: 0
-----------------------------------
CarParkID: CR1
Address: BLK 1/3/15/17 BEACH ROAD
CarParkType: SURFACE CAR PARK
Latitude: 1.303270
Longitude: 103.863307
LotType:  C
	TotalLots: 124
	AvailableLots: 51
-----------------------------------
CarParkID: B72
Address: BLK 660A JALAN TENAGA
CarParkType: 
Latitude: 1.334377
Longitude: 103.907390
LotType:  C
	TotalLots: 412
	AvailableLots: 125
-----------------------------------
CarParkID: B85
Address: BLK 184 BEDOK NORTH ROAD
CarParkType: 
Latitude: 1.326080
Longitude: 103.941358
LotType:  C
	TotalLots: 559
	AvailableLots: 337
-----------------------------------
CarParkID: J40
Address: BLK 462-467 JURONG WEST STREET 41
CarParkType: SURFACE CAR PARK
Latitude: 1.350029
Longitude: 103.722878
LotType:  C
	TotalLots: 206
	AvailableLots: 38
-----------------------------------
CarParkID: B40
Address: BLK 504/508 BEDOK NORTH STREET 3
CarParkType: 
Latitude: 1.332550
Longitude: 103.932770
LotType:  C
	TotalLots: 540
	AvailableLots: 250
-----------------------------------
CarParkID: UA2
Address: BLK 3 TO 5 UPPER ALJUNIED LANE
CarParkType: SURFACE CAR PARK
Latitude: 1.333690
Longitude: 103.879229
LotType:  C
	TotalLots: 73
	AvailableLots: 6
-----------------------------------
CarParkID: H11
Address: BLK 34 JALAN BUKIT HO SWEE
CarParkType: SURFACE CAR PARK
Latitude: 1.287438
Longitude: 103.827841
-----------------------------------
CarParkID: 7
Address: Orchard Point
CarParkType: MULTI-STOREY CAR PARK
Latitude: 1.301350
Longitude: 103.840610
LotType:  C
	TotalLots: 
	AvailableLots: 153
-----------------------------------
CarParkID: SI13
Address: BLK 221/235 SIMEI STREET 4
CarParkType: SURFACE CAR PARK
Latitude: 1.341979
Longitude: 103.957111
LotType:  C
	TotalLots: 689
	AvailableLots: 245
-----------------------------------
CarParkID: W100
Address: BLK 537-547 WOODLANDS DRIVE 16
CarParkType: SURFACE CAR PARK
Latitude: 1.428704
Longitude: 103.792240
LotType:  C
	TotalLots: 282
	AvailableLots: 0
-----------------------------------
CarParkID: UBA4
Address: - UBI AVENUE 4
CarParkType: SURFACE CAR PARK
Latitude: 1.335772
Longitude: 103.896172
-----------------------------------
CarParkID: CY
Address: BLK 269/269A/269B CHENG YAN COURT CAR PARK
CarParkType: 
Latitude: 1.300626
Longitude: 103.853665
LotType:  C
	TotalLots: 28
	AvailableLots: 8
-----------------------------------
CarParkID: B34
Address: BLK 134/136 BEDOK NORTH AVENUE 3
CarParkType: 
Latitude: 1.328312
Longitude: 103.935673
LotType:  C
	TotalLots: 274
	AvailableLots: 170
-----------------------------------
CarParkID: P34L
Address: PUNGGOL ROAD
CarParkType: SURFACE CAR PARK
Latitude: 1.404525
Longitude: 103.907422
LotType:  C
	TotalLots: 277
	AvailableLots: 134
-----------------------------------
CarParkID: M25
Address: BLK 53 TO 56/68/70/71/72 PIPIT RD/CIRCUIT ROAD
CarParkType: SURFACE CAR PARK
Latitude: 1.324225
Longitude: 103.888177
LotType:  C
	TotalLots: 417
	AvailableLots: 172
-----------------------------------
CarParkID: CK54
Address: BLK 638-643 CHOA CHU KANG STREET 64
CarParkType: BASEMENT CAR PARK
Latitude: 1.398136
Longitude: 103.749116
LotType:  C
	TotalLots: 628
	AvailableLots: 325
-----------------------------------
CarParkID: W74
Address: BLK 737A WOODLANDS CIRCLE
CarParkType: MULTI-STOREY CAR PARK
Latitude: 1.443215
Longitude: 103.796353
LotType:  C
	TotalLots: 381
	AvailableLots: 198
-----------------------------------
CarParkID: TM35
Address: BLK 742A TAMPINES STREET 72
CarParkType: MULTI-STOREY CAR PARK
Latitude: 1.359914
Longitude: 103.934139
LotType:  C
	TotalLots: 632
	AvailableLots: 290
-----------------------------------
CarParkID: HG36
Address: BLK 703-706,711-712 HOUGANG AVENUE 2
CarParkType: SURFACE CAR PARK
Latitude: 1.366118
Longitude: 103.887604
LotType:  C
	TotalLots: 220
	AvailableLots: 46
-----------------------------------
CarParkID: L1
Address: BLK 415-420 LORONG LEW LIAN
CarParkType: 
Latitude: 1.349506
Longitude: 103.875355
LotType:  C
	TotalLots: 178
	AvailableLots: 34
-----------------------------------
CarParkID: A47
Address: BLK 562/565/560 ANG MO KIO STREET 54
CarParkType: 
Latitude: 1.370558
Longitude: 103.859247
LotType:  C
	TotalLots: 303
	AvailableLots: 127
-----------------------------------
CarParkID: WCB
Address: BLK 261/262/264 WATERLOO BASEMENT CAR PARK
CarParkType: BASEMENT CAR PARK
Latitude: 1.298808
Longitude: 103.851937
LotType:  C
	TotalLots: 143
	AvailableLots: 85
-----------------------------------
CarParkID: BE17
Address: BISHAN PARK II
CarParkType: SURFACE CAR PARK
Latitude: 1.363007
Longitude: 103.847678
-----------------------------------
CarParkID: TP64
Address: BLK 199 & 203 TOA PAYOH NORTH
CarParkType: SURFACE CAR PARK
Latitude: 1.342338
Longitude: 103.849613
-----------------------------------
CarParkID: BE27
Address: BLK 212A BISHAN STREET 23
CarParkType: MULTI-STOREY CAR PARK
Latitude: 1.356656
Longitude: 103.848631
LotType:  C
	TotalLots: 344
	AvailableLots: 173
-----------------------------------
CarParkID: Q85
Address: NORTH BUONA VISTA ROAD
CarParkType: SURFACE CAR PARK
Latitude: 1.308234
Longitude: 103.792045
LotType:  C
	TotalLots: 148
	AvailableLots: 101
-----------------------------------
CarParkID: SIM5
Address: BLK 256A SIMEI STREET 1
CarParkType: MULTI-STOREY CAR PARK
Latitude: 1.342527
Longitude: 103.952280
LotType:  C
	TotalLots: 235
	AvailableLots: 138
-----------------------------------
CarParkID: W82
Address: BLK 787A WOODLANDS CRESCENT
CarParkType: MULTI-STOREY CAR PARK
Latitude: 1.444514
Longitude: 103.801607
LotType:  C
	TotalLots: 450
	AvailableLots: 259
-----------------------------------
CarParkID: A90
Address: BLK 625/627 ANG MO KIO STREET 61
CarParkType: SURFACE CAR PARK
Latitude: 1.382000
Longitude: 103.841247
-----------------------------------
CarParkID: PL74
Address: BLK 233 SUMANG LANE
CarParkType: MULTI-STOREY CAR PARK
Latitude: 1.401260
Longitude: 103.891603
-----------------------------------
CarParkID: C0133
Address: CARPENTER STREET OFF STREET
CarParkType: SURFACE CAR PARK
Latitude: 1.288266
Longitude: 103.848183
LotType:  C
	TotalLots: 
	AvailableLots: 66
-----------------------------------
CarParkID: CAM
Address: BLK 88 TANGLIN HALT ROAD
CarParkType: 
Latitude: 1.301821
Longitude: 103.798206
LotType:  C
	TotalLots: 480
	AvailableLots: 186
LotType:  Y
	TotalLots: 140
	AvailableLots: 97
LotType:  H
	TotalLots: 10
	AvailableLots: 50
-----------------------------------
CarParkID: TE1
Address: BLK 115-117 JALAN BUKIT MERAH
CarParkType: SURFACE CAR PARK
Latitude: 1.281313
Longitude: 103.826454
LotType:  H
	TotalLots: 50
	AvailableLots: 0
LotType:  Y
	TotalLots: 60
	AvailableLots: 31
LotType:  C
	TotalLots: 90
	AvailableLots: 9
-----------------------------------
CarParkID: SK35
Address: BLK 297 COMPASSVALE STREET
CarParkType: MULTI-STOREY CAR PARK
Latitude: 1.395193
Longitude: 103.899843
LotType:  C
	TotalLots: 496
	AvailableLots: 322
LotType:  H
	TotalLots: 100
	AvailableLots: 0
LotType:  Y
	TotalLots: 154
	AvailableLots: 75
-----------------------------------
CarParkID: UA5
Address: BLK 12 TO 18 JOO SENG ROAD
CarParkType: SURFACE CAR PARK
Latitude: 1.336513
Longitude: 103.881182
LotType:  C
	TotalLots: 337
	AvailableLots: 98
-----------------------------------
CarParkID: W579
Address: BLK 579A WOODLANDS DRIVE 16
CarParkType: MULTI-STOREY CAR PARK
Latitude: 1.431042
Longitude: 103.795534
LotType:  C
	TotalLots: 418
	AvailableLots: 226
-----------------------------------
CarParkID: W96
Address: BLK 667A WOODLANDS RING ROAD
CarParkType: MULTI-STOREY CAR PARK
Latitude: 1.438890
Longitude: 103.797917
LotType:  C
	TotalLots: 756
	AvailableLots: 449
-----------------------------------
CarParkID: BJ16
Address: BLK 259A BANGKIT ROAD
CarParkType: MULTI-STOREY CAR PARK
Latitude: 1.377506
Longitude: 103.773620
LotType:  C
	TotalLots: 311
	AvailableLots: 240
-----------------------------------
CarParkID: GM3
Address: BLK 19/20 GHIM MOH ROAD
CarParkType: SURFACE CAR PARK
Latitude: 1.311155
Longitude: 103.788853
LotType:  C
	TotalLots: 56
	AvailableLots: 46
-----------------------------------
CarParkID: CK66
Address: BLK 573A CHOA CHU KANG STREET 52
CarParkType: MULTI-STOREY CAR PARK
Latitude: 1.394020
Longitude: 103.745559
LotType:  C
	TotalLots: 164
	AvailableLots: 29
-----------------------------------
CarParkID: PL48
Address: BLK 271 PUNGGOL WALK
CarParkType: COVERED CAR PARK
Latitude: 1.403004
Longitude: 103.900383
LotType:  C
	TotalLots: 476
	AvailableLots: 131
-----------------------------------
CarParkID: SM1
Address: BLK 22 SIN MING ROAD
CarParkType: SURFACE CAR PARK
Latitude: 1.357917
Longitude: 103.839328
LotType:  C
	TotalLots: 103
	AvailableLots: 43
-----------------------------------
CarParkID: GE2
Address: BLK 120 TO 123 GEYLANG EAST CENTRAL
CarParkType: SURFACE CAR PARK
Latitude: 1.317945
Longitude: 103.884839
LotType:  C
	TotalLots: 194
	AvailableLots: 113
LotType:  H
	TotalLots: 50
	AvailableLots: 50
LotType:  Y
	TotalLots: 62
	AvailableLots: 46
-----------------------------------
CarParkID: HG38
Address: BLK 508-517,520-533 HOUGANG AVENUE 10
CarParkType: SURFACE CAR PARK
Latitude: 1.373393
Longitude: 103.890294
LotType:  C
	TotalLots: 1076
	AvailableLots: 419
-----------------------------------
CarParkID: SB7
Address: BLK 336A SEMBAWANG CRESCENT
CarParkType: MULTI-STOREY CAR PARK
Latitude: 1.446628
Longitude: 103.815006
LotType:  C
	TotalLots: 421
	AvailableLots: 289
-----------------------------------
CarParkID: C38
Address: BLK 715-717 CLEMENTI WEST STREET 2
CarParkType: 
Latitude: 1.302807
Longitude: 103.762527
LotType:  C
	TotalLots: 265
	AvailableLots: 58
-----------------------------------
CarParkID: SK51
Address: BLK 325 SENGKANG EAST WAY
CarParkType: MULTI-STOREY CAR PARK
Latitude: 1.393612
Longitude: 103.891476
LotType:  H
	TotalLots: 10
	AvailableLots: 0
LotType:  Y
	TotalLots: 142
	AvailableLots: 121
LotType:  C
	TotalLots: 541
	AvailableLots: 472
-----------------------------------
CarParkID: J64
Address: BLK 354 JURONG EAST AVENUE 1
CarParkType: MULTI-STOREY CAR PARK
Latitude: 1.344473
Longitude: 103.731852
LotType:  C
	TotalLots: 254
	AvailableLots: 217
-----------------------------------
CarParkID: HDBH
Address: BLK 480 480 LORONG 6 TOA PAYOH
CarParkType: BASEMENT CAR PARK
Latitude: 1.332204
Longitude: 103.848319
-----------------------------------
CarParkID: CK61
Address: BLK 686 CHOA CHU KANG CRESCENT
CarParkType: MULTI-STOREY CAR PARK
Latitude: 1.404089
Longitude: 103.748917
LotType:  C
	TotalLots: 1272
	AvailableLots: 960
-----------------------------------
CarParkID: J61
Address: BLK 912/932 JURONG WEST STREET 92
CarParkType: SURFACE CAR PARK
Latitude: 1.340076
Longitude: 103.688425
LotType:  C
	TotalLots: 779
	AvailableLots: 175
-----------------------------------
CarParkID: HG97
Address: BLK 804 HOUGANG AVENUE 10
CarParkType: SURFACE CAR PARK
Latitude: 1.371221
Longitude: 103.894757
LotType:  C
	TotalLots: 43
	AvailableLots: 37
-----------------------------------
CarParkID: Y48M
Address: BLK 385 YISHUN RING ROAD/AVENUE 6
CarParkType: MULTI-STOREY CAR PARK
Latitude: 1.428366
Longitude: 103.847529
LotType:  C
	TotalLots: 257
	AvailableLots: 139
-----------------------------------
CarParkID: SK65
Address: BLK 267 COMPASSVALE LINK
CarParkType: MULTI-STOREY CAR PARK
Latitude: 1.383647
Longitude: 103.897006
LotType:  H
	TotalLots: 100
	AvailableLots: 0
LotType:  C
	TotalLots: 565
	AvailableLots: 453
LotType:  Y
	TotalLots: 81
	AvailableLots: 74
-----------------------------------
CarParkID: SK34
Address: BLK 299 COMPASSVALE STREET
CarParkType: MULTI-STOREY CAR PARK
Latitude: 1.396680
Longitude: 103.901971
LotType:  C
	TotalLots: 1044
	AvailableLots: 1032
LotType:  H
	TotalLots: 100
	AvailableLots: 0
LotType:  Y
	TotalLots: 113
	AvailableLots: 0
-----------------------------------
CarParkID: JM26
Address: BLK 675 JURONG WEST STREET 64
CarParkType: MULTI-STOREY CAR PARK
Latitude: 1.345572
Longitude: 103.703133
LotType:  C
	TotalLots: 571
	AvailableLots: 328
-----------------------------------
CarParkID: KJML
Address: BLK 14A FARRER PARK ROAD
CarParkType: SURFACE CAR PARK
Latitude: 1.312220
Longitude: 103.851606
LotType:  C
	TotalLots: 5
	AvailableLots: 5
-----------------------------------
CarParkID: T0017
Address: TIONG BAHRU PARK OFF STREET
CarParkType: SURFACE CAR PARK
Latitude: 1.286932
Longitude: 103.824641
LotType:  C
	TotalLots: 
	AvailableLots: 14
-----------------------------------
CarParkID: BA2
Address: BLK 117 ALKAFF CRESCENT
CarParkType: 
Latitude: 1.336905
Longitude: 103.873255
LotType:  C
	TotalLots: 361
	AvailableLots: 111
-----------------------------------
CarParkID: BL3
Address: BLK 174/179 BOON LAY DRIVE
CarParkType: 
Latitude: 1.346875
Longitude: 103.709235
LotType:  C
	TotalLots: 196
	AvailableLots: 42
-----------------------------------
CarParkID: W56
Address: BLK 891C WOODLANDS DRIVE 50
CarParkType: MULTI-STOREY CAR PARK
Latitude: 1.438159
Longitude: 103.791467
LotType:  C
	TotalLots: 537
	AvailableLots: 371
-----------------------------------
CarParkID: Y60M
Address: BLK 430 YISHUN AVENUE 11
CarParkType: MULTI-STOREY CAR PARK
Latitude: 1.421137
Longitude: 103.848119
LotType:  C
	TotalLots: 383
	AvailableLots: 249
-----------------------------------
CarParkID: CK22
Address: BLK 343A CHOA CHU KANG LOOP
CarParkType: MULTI-STOREY CAR PARK
Latitude: 1.383843
Longitude: 103.745943
LotType:  C
	TotalLots: 378
	AvailableLots: 131
-----------------------------------
CarParkID: CK36
Address: BLK 527A CHOA CHU KANG STREET 51
CarParkType: MULTI-STOREY CAR PARK
Latitude: 1.392285
Longitude: 103.741087
LotType:  C
	TotalLots: 420
	AvailableLots: 173
-----------------------------------
CarParkID: SK15
Address: BLK 256A COMPASSVALE ROAD
CarParkType: MULTI-STOREY CAR PARK
Latitude: 1.393603
Longitude: 103.899534
LotType:  C
	TotalLots: 1358
	AvailableLots: 788
-----------------------------------
CarParkID: BM10
Address: BLK 56/57 LENGKOK BAHRU
CarParkType: SURFACE CAR PARK
Latitude: 1.288095
Longitude: 103.814069
LotType:  C
	TotalLots: 422
	AvailableLots: 178
-----------------------------------
CarParkID: HG18
Address: BLK 230/232/234/236/238 HOUGANG AVENUE 1
CarParkType: SURFACE CAR PARK
Latitude: 1.358056
Longitude: 103.888950
LotType:  C
	TotalLots: 242
	AvailableLots: 56
-----------------------------------
CarParkID: S0112
Address: SEAH IM ROAD OFF STREET
CarParkType: SURFACE CAR PARK
Latitude: 1.268040
Longitude: 103.817596
LotType:  Y
	TotalLots: 
	AvailableLots: 4
-----------------------------------
CarParkID: SE28
Address: BLK 410A SERANGOON CENTRAL
CarParkType: MULTI-STOREY CAR PARK
Latitude: 1.348195
Longitude: 103.873623
LotType:  C
	TotalLots: 276
	AvailableLots: 203
-----------------------------------
CarParkID: TP68
Address: BLK 196 KIM KEAT AVENUE
CarParkType: SURFACE CAR PARK
Latitude: 1.331135
Longitude: 103.859293
LotType:  C
	TotalLots: 21
	AvailableLots: 12
-----------------------------------
CarParkID: CK3A
Address: BLK 118A TECK WHYE LANE
CarParkType: MULTI-STOREY CAR PARK
Latitude: 1.379492
Longitude: 103.749980
LotType:  C
	TotalLots: 517
	AvailableLots: 368
-----------------------------------
CarParkID: TB2
Address: BLK 8-10 TELOK BLANGAH CRESCENT
CarParkType: SURFACE CAR PARK
Latitude: 1.277605
Longitude: 103.819343
LotType:  Y
	TotalLots: 18
	AvailableLots: 10
LotType:  H
	TotalLots: 100
	AvailableLots: 0
LotType:  C
	TotalLots: 51
	AvailableLots: 2
-----------------------------------
CarParkID: A100
Address: BLK 650 ANG MO KIO STREET 61
CarParkType: SURFACE CAR PARK
Latitude: 1.377987
Longitude: 103.842602
LotType:  C
	TotalLots: 64
	AvailableLots: 42
-----------------------------------
CarParkID: SK76
Address: BLK 210 COMPASSVALE LANE
CarParkType: MULTI-STOREY CAR PARK
Latitude: 1.385327
Longitude: 103.900108
LotType:  C
	TotalLots: 337
	AvailableLots: 114
-----------------------------------
CarParkID: PM8
Address: BLK 458A PASIR RIS DRIVE 4
CarParkType: MULTI-STOREY CAR PARK
Latitude: 1.371635
Longitude: 103.960256
LotType:  C
	TotalLots: 330
	AvailableLots: 179
-----------------------------------
CarParkID: ECM2
Address: BLK 39 EUNOS ROAD 2
CarParkType: MULTI-STOREY CAR PARK
Latitude: 1.319815
Longitude: 103.900649
LotType:  C
	TotalLots: 413
	AvailableLots: 185
-----------------------------------
CarParkID: TM28
Address: BLK 498K TAMPINES STREET 45
CarParkType: MULTI-STOREY CAR PARK
Latitude: 1.362833
Longitude: 103.956879
LotType:  C
	TotalLots: 289
	AvailableLots: 90
-----------------------------------
CarParkID: HG16
Address: BLK 211-212 HOUGANG STREET 21
CarParkType: SURFACE CAR PARK
Latitude: 1.359726
Longitude: 103.888091
LotType:  C
	TotalLots: 73
	AvailableLots: 53
-----------------------------------
CarParkID: UA6
Address: BLK 2 UPPER ALJUNIED LANE
CarParkType: SURFACE CAR PARK
Latitude: 1.334224
Longitude: 103.879156
-----------------------------------
CarParkID: U13
Address: BLK 212/230 BUKIT BATOK STREET 21
CarParkType: SURFACE CAR PARK
Latitude: 1.347803
Longitude: 103.753222
LotType:  C
	TotalLots: 661
	AvailableLots: 167
-----------------------------------
CarParkID: BE30
Address: BLK 231A BISHAN STREET 23
CarParkType: MULTI-STOREY CAR PARK
Latitude: 1.357463
Longitude: 103.846445
LotType:  C
	TotalLots: 345
	AvailableLots: 196
-----------------------------------
CarParkID: HG49
Address: BLK 435-458 HOUGANG AVENUE 6/8
CarParkType: SURFACE CAR PARK
Latitude: 1.378793
Longitude: 103.894759
LotType:  C
	TotalLots: 776
	AvailableLots: 154
-----------------------------------
CarParkID: Y49H
Address: BLK 419A YISHUN AVENUE 11
CarParkType: SURFACE CAR PARK
Latitude: 1.424555
Longitude: 103.847521
LotType:  C
	TotalLots: 27
	AvailableLots: 1
-----------------------------------
CarParkID: GM1B
Address: BLK 5A GHIM MOH ROAD
CarParkType: MULTI-STOREY CAR PARK
Latitude: 1.312921
Longitude: 103.788257
-----------------------------------
CarParkID: TPM5
Address: BLK 84C LORONG 2 TOA PAYOH
CarParkType: MULTI-STOREY CAR PARK
Latitude: 1.335818
Longitude: 103.847340
LotType:  C
	TotalLots: 342
	AvailableLots: 187
-----------------------------------
CarParkID: W26
Address: BLK 301/302 WOODLANDS STREET 31
CarParkType: SURFACE CAR PARK
Latitude: 1.431684
Longitude: 103.774286
LotType:  C
	TotalLots: 20
	AvailableLots: 13
-----------------------------------
CarParkID: TB4A
Address: BLK 18 & 19 TELOK BLANGAH CRESCENT
CarParkType: SURFACE CAR PARK
Latitude: 1.277634
Longitude: 103.822440
LotType:  C
	TotalLots: 46
	AvailableLots: 40
-----------------------------------
CarParkID: B68
Address: BLK 10A BEDOK SOUTH AVENUE 2
CarParkType: MULTI-STOREY CAR PARK
Latitude: 1.322504
Longitude: 103.936922
-----------------------------------
CarParkID: M34
Address: BLK 81/82 MACPHERSON LANE
CarParkType: SURFACE CAR PARK
Latitude: 1.332507
Longitude: 103.885640
-----------------------------------
CarParkID: M38
Address: BLK 63 TO 64 CIRCUIT ROAD
CarParkType: SURFACE CAR PARK
Latitude: 1.327152
Longitude: 103.887476
LotType:  C
	TotalLots: 39
	AvailableLots: 0
-----------------------------------
CarParkID: TPMG
Address: BLK 128A LORONG 1 TOA PAYOH
CarParkType: MULTI-STOREY CAR PARK
Latitude: 1.338248
Longitude: 103.844073
LotType:  C
	TotalLots: 116
	AvailableLots: 90
-----------------------------------
CarParkID: CKM3
Address: BLK 445A CHOA CHU KANG AVENUE 4
CarParkType: MULTI-STOREY CAR PARK
Latitude: 1.381187
Longitude: 103.736641
LotType:  C
	TotalLots: 456
	AvailableLots: 197
-----------------------------------
CarParkID: C0119
Address: CEYLON ROAD OFF STREET
CarParkType: SURFACE CAR PARK
Latitude: 1.309855
Longitude: 103.899433
LotType:  C
	TotalLots: 
	AvailableLots: 4
-----------------------------------
CarParkID: SB15
Address: BLK 358A ADMIRALTY DRIVE
CarParkType: MULTI-STOREY CAR PARK
Latitude: 1.448927
Longitude: 103.816693
LotType:  C
	TotalLots: 1549
	AvailableLots: 1040
-----------------------------------
CarParkID: Y16A
Address: BLK 236/238 YISHUN RING ROAD
CarParkType: SURFACE CAR PARK
Latitude: 1.433753
Longitude: 103.839145
-----------------------------------
CarParkID: C12
Address: BLK 301-302,305-308 CLEMENTI AVENUE 4
CarParkType: 
Latitude: 1.321790
Longitude: 103.766106
LotType:  C
	TotalLots: 323
	AvailableLots: 220
LotType:  Y
	TotalLots: 120
	AvailableLots: 93
LotType:  H
	TotalLots: 50
	AvailableLots: 50
-----------------------------------
CarParkID: BE42
Address: BLK 290A BISHAN STREET 24
CarParkType: MULTI-STOREY CAR PARK
Latitude: 1.355561
Longitude: 103.844548
LotType:  C
	TotalLots: 852
	AvailableLots: 440
-----------------------------------
CarParkID: DUXM
Address: BLK 1 CANTONMENT ROAD
CarParkType: BASEMENT CAR PARK
Latitude: 1.276977
Longitude: 103.841054
LotType:  C
	TotalLots: 1095
	AvailableLots: 244
LotType:  Y
	TotalLots: 213
	AvailableLots: 61
LotType:  H
	TotalLots: 50
	AvailableLots: 50
-----------------------------------
CarParkID: PL88
Address: BLK 433 NORTHSHORE DRIVE
CarParkType: MULTI-STOREY CAR PARK
Latitude: 1.417491
Longitude: 103.910384
LotType:  C
	TotalLots: 408
	AvailableLots: 180
-----------------------------------
CarParkID: BJ57
Address: BLK 628 SENJA ROAD
CarParkType: SURFACE CAR PARK
Latitude: 1.385251
Longitude: 103.760170
LotType:  C
	TotalLots: 24
	AvailableLots: 2
-----------------------------------
CarParkID: Y77M
Address: BLK 461 YISHUN AVENUE 6
CarParkType: MULTI-STOREY CAR PARK
Latitude: 1.428447
Longitude: 103.849944
LotType:  C
	TotalLots: 423
	AvailableLots: 186
-----------------------------------
CarParkID: B28
Address: BLK 107/110 BEDOK NORTH ROAD
CarParkType: 
Latitude: 1.332545
Longitude: 103.935571
LotType:  C
	TotalLots: 342
	AvailableLots: 202
-----------------------------------
CarParkID: J80M
Address: BLK 734A JURONG WEST STREET 73
CarParkType: MULTI-STOREY CAR PARK
Latitude: 1.345547
Longitude: 103.700969
LotType:  C
	TotalLots: 441
	AvailableLots: 137
-----------------------------------
CarParkID: H17
Address: BLK 28A BEO CRESCENT
CarParkType: MULTI-STOREY CAR PARK
Latitude: 1.288167
Longitude: 103.827857
LotType:  C
	TotalLots: 229
	AvailableLots: 98
-----------------------------------
CarParkID: W41
Address: BLK 851-856 WOODLANDS STREET 83
CarParkType: SURFACE CAR PARK
Latitude: 1.440010
Longitude: 103.793321
LotType:  C
	TotalLots: 251
	AvailableLots: 38
-----------------------------------
CarParkID: BE29
Address: BLK 228-231 BISHAN STREET 23
CarParkType: SURFACE CAR PARK
Latitude: 1.357452
Longitude: 103.845901
LotType:  C
	TotalLots: 48
	AvailableLots: 3
-----------------------------------
CarParkID: PM43
Address: BLK 757A PASIR RIS STREET 71
CarParkType: MULTI-STOREY CAR PARK
Latitude: 1.377236
Longitude: 103.933136
LotType:  C
	TotalLots: 340
	AvailableLots: 136
-----------------------------------
CarParkID: Y25M
Address: 813 YISHUN RING ROAD
CarParkType: MULTI-STOREY CAR PARK
Latitude: 1.417712
Longitude: 103.832653
LotType:  C
	TotalLots: 114
	AvailableLots: 60
-----------------------------------
CarParkID: HG3D
Address: BLK 998 BUANGKOK CRESCENT
CarParkType: MULTI-STOREY CAR PARK
Latitude: 1.384210
Longitude: 103.879673
LotType:  C
	TotalLots: 265
	AvailableLots: 102
-----------------------------------
CarParkID: SR2
Address: BLK 8, 9 SELEGIE ROAD CAR PARK
CarParkType: SURFACE CAR PARK
Latitude: 1.303163
Longitude: 103.851076
-----------------------------------
CarParkID: J2
Address: BLK 108/110 JURONG EAST STREET 13
CarParkType: 
Latitude: 1.338608
Longitude: 103.736771
LotType:  C
	TotalLots: 200
	AvailableLots: 84
-----------------------------------
CarParkID: GBM
Address: BLK 60A GEYLANG BAHRU
CarParkType: MULTI-STOREY CAR PARK
Latitude: 1.322772
Longitude: 103.868633
LotType:  C
	TotalLots: 677
	AvailableLots: 328
-----------------------------------
CarParkID: PL22
Address: BLK 644 PUNGGOL CENTRAL
CarParkType: MULTI-STOREY CAR PARK
Latitude: 1.397739
Longitude: 103.915911
LotType:  C
	TotalLots: 379
	AvailableLots: 193
-----------------------------------
CarParkID: U10
Address: BLK 178/184 BUKIT BATOK WEST AVENUE 8
CarParkType: SURFACE CAR PARK
Latitude: 1.345803
Longitude: 103.743724
LotType:  C
	TotalLots: 214
	AvailableLots: 60
-----------------------------------
CarParkID: CK53
Address: BLK 668A CHOA CHU KANG CRESCENT
CarParkType: MULTI-STOREY CAR PARK
Latitude: 1.401554
Longitude: 103.750186
LotType:  C
	TotalLots: 450
	AvailableLots: 204
-----------------------------------
CarParkID: PM22
Address: BLK 555A PASIR RIS STREET 51
CarParkType: MULTI-STOREY CAR PARK
Latitude: 1.368562
Longitude: 103.952213
LotType:  C
	TotalLots: 355
	AvailableLots: 259
-----------------------------------
CarParkID: J66
Address: BLK 959-961 JURONG WEST STREET 92
CarParkType: SURFACE CAR PARK
Latitude: 1.341297
Longitude: 103.691129
LotType:  C
	TotalLots: 77
	AvailableLots: 51
-----------------------------------
CarParkID: W91
Address: BLK 630A WOODLANDS RING ROAD
CarParkType: MULTI-STOREY CAR PARK
Latitude: 1.435105
Longitude: 103.801164
LotType:  C
	TotalLots: 414
	AvailableLots: 250
-----------------------------------
CarParkID: BE35
Address: BLK 246-256 BISHAN STREET 22
CarParkType: SURFACE CAR PARK
Latitude: 1.361420
Longitude: 103.843084
LotType:  C
	TotalLots: 190
	AvailableLots: 9
-----------------------------------
CarParkID: AK52
Address: BLK 513 ANG MO KIO STREET 53
CarParkType: SURFACE CAR PARK
Latitude: 1.372438
Longitude: 103.850295
-----------------------------------
CarParkID: B82
Address: BLK 509B BEDOK NORTH STREET 3
CarParkType: SURFACE CAR PARK
Latitude: 1.333863
Longitude: 103.930415
-----------------------------------
CarParkID: TG6
Address: BLK 32, 39/41 TEBAN GARDENS
CarParkType: SURFACE CAR PARK
Latitude: 1.321824
Longitude: 103.741092
LotType:  C
	TotalLots: 176
	AvailableLots: 76
-----------------------------------
CarParkID: J53
Address: BLK 417/422 JURONG WEST STREET 42
CarParkType: SURFACE CAR PARK
Latitude: 1.350740
Longitude: 103.726726
LotType:  C
	TotalLots: 215
	AvailableLots: 62
-----------------------------------
CarParkID: GE5
Address: BLK 129-134 GEYLANG EAST AVENUE 1/2
CarParkType: SURFACE CAR PARK
Latitude: 1.316549
Longitude: 103.887565
LotType:  C
	TotalLots: 253
	AvailableLots: 28
LotType:  H
	TotalLots: 50
	AvailableLots: 50
LotType:  Y
	TotalLots: 43
	AvailableLots: 29
-----------------------------------
CarParkID: SI5
Address: BLK 120/130 SIMEI STREET 1
CarParkType: SURFACE CAR PARK
Latitude: 1.345745
Longitude: 103.953964
-----------------------------------
CarParkID: SM8
Address: BLK 22A SIN MING ROAD
CarParkType: MULTI-STOREY CAR PARK
Latitude: 1.357327
Longitude: 103.839033
-----------------------------------
CarParkID: W60
Address: WOODLANDS AVENUE 5
CarParkType: SURFACE CAR PARK
Latitude: 1.435107
Longitude: 103.793072
-----------------------------------
CarParkID: CK47
Address: BLK 787A CHOA CHU KANG DRIVE
CarParkType: MULTI-STOREY CAR PARK
Latitude: 1.395239
Longitude: 103.747699
LotType:  C
	TotalLots: 695
	AvailableLots: 533
-----------------------------------
CarParkID: MP1
Address: BLK 1 TO 4 MARINE TERRACE
CarParkType: SURFACE CAR PARK
Latitude: 1.304818
Longitude: 103.917522
LotType:  C
	TotalLots: 159
	AvailableLots: 1
LotType:  H
	TotalLots: 50
	AvailableLots: 0
LotType:  Y
	TotalLots: 44
	AvailableLots: 31
-----------------------------------
CarParkID: TB6
Address: BLK 27/33 TELOK BLANGAH WAY
CarParkType: SURFACE CAR PARK
Latitude: 1.273950
Longitude: 103.822151
LotType:  C
	TotalLots: 133
	AvailableLots: 60
LotType:  Y
	TotalLots: 33
	AvailableLots: 0
LotType:  H
	TotalLots: 10
	AvailableLots: 0
-----------------------------------
CarParkID: SE19
Address: BLK 201/210 SERANGOON CENTRAL
CarParkType: SURFACE CAR PARK
Latitude: 1.354744
Longitude: 103.873691
LotType:  C
	TotalLots: 558
	AvailableLots: 266
-----------------------------------
CarParkID: A0021
Address: AMOY STREET OFF STREET
CarParkType: SURFACE CAR PARK
Latitude: 1.280790
Longitude: 103.847177
LotType:  C
	TotalLots: 
	AvailableLots: 15
-----------------------------------
CarParkID: Y0019
Address: YAN KIT ROAD - CANTONMENT ROAD OFF ST
CarParkType: SURFACE CAR PARK
Latitude: 1.274549
Longitude: 103.841430
LotType:  C
	TotalLots: 
	AvailableLots: 21
-----------------------------------
CarParkID: C20M
Address: BLK 462A CLEMENTI AVENUE 3
CarParkType: MULTI-STOREY CAR PARK
Latitude: 1.311504
Longitude: 103.765650
LotType:  C
	TotalLots: 550
	AvailableLots: 449
LotType:  L
	TotalLots: 0
	AvailableLots: 0
LotType:  M
	TotalLots: 123
	AvailableLots: 100
LotType:  S
	TotalLots: 0
	AvailableLots: 0
-----------------------------------
CarParkID: BJ36
Address: BLK 525A JELAPANG ROAD
CarParkType: MULTI-STOREY CAR PARK
Latitude: 1.386270
Longitude: 103.765338
LotType:  C
	TotalLots: 140
	AvailableLots: 23
-----------------------------------
CarParkID: PM34
Address: BLK 649A PASIR RIS DRIVE 10
CarParkType: MULTI-STOREY CAR PARK
Latitude: 1.378000
Longitude: 103.938712
LotType:  C
	TotalLots: 0
	AvailableLots: 0
-----------------------------------
CarParkID: SB25
Address: BLK 588 MONTREAL DRIVE
CarParkType: MULTI-STOREY CAR PARK
Latitude: 1.450189
Longitude: 103.824787
LotType:  C
	TotalLots: 524
	AvailableLots: 281
-----------------------------------
CarParkID: CTM1
Address: BLK 441 COMMONWEALTH AVENUE WEST
CarParkType: MULTI-STOREY CAR PARK
Latitude: 1.314744
Longitude: 103.764073
LotType:  C
	TotalLots: 266
	AvailableLots: 166
-----------------------------------
CarParkID: B97
Address: BLK 714A BEDOK RESERVOIR ROAD
CarParkType: 
Latitude: 1.336156
Longitude: 103.923508
LotType:  C
	TotalLots: 553
	AvailableLots: 226
-----------------------------------
CarParkID: NBRM
Address: BLK 13 NORTH BRIDGE ROAD MSCP
CarParkType: MULTI-STOREY CAR PARK
Latitude: 1.304003
Longitude: 103.863010
LotType:  C
	TotalLots: 395
	AvailableLots: 287
-----------------------------------
CarParkID: T55
Address: BLK 501/508 TAMPINES CENTRAL 1
CarParkType: SURFACE CAR PARK
Latitude: 1.356294
Longitude: 103.945252
LotType:  C
	TotalLots: 8
	AvailableLots: 6
-----------------------------------
CarParkID: JKM
Address: BLK 8A JALAN KUKOH MSCP
CarParkType: MULTI-STOREY CAR PARK
Latitude: 1.287256
Longitude: 103.838973
LotType:  C
	TotalLots: 360
	AvailableLots: 281
LotType:  Y
	TotalLots: 111
	AvailableLots: 6
LotType:  H
	TotalLots: 100
	AvailableLots: 0
-----------------------------------
CarParkID: DRM3
Address: 108A DEPOT ROAD
CarParkType: MULTI-STOREY CAR PARK
Latitude: 1.280838
Longitude: 103.809868
LotType:  C
	TotalLots: 285
	AvailableLots: 206
-----------------------------------
CarParkID: Q16
Address: BLK 45 AND 50 STIRLING ROAD
CarParkType: SURFACE CAR PARK
Latitude: 1.296933
Longitude: 103.803716
LotType:  C
	TotalLots: 52
	AvailableLots: 33
LotType:  Y
	TotalLots: 18
	AvailableLots: 18
LotType:  H
	TotalLots: 100
	AvailableLots: 0
-----------------------------------
CarParkID: BE21
Address: BLK 506/509 BISHAN STREET 11
CarParkType: SURFACE CAR PARK
Latitude: 1.348624
Longitude: 103.849040
-----------------------------------
CarParkID: B6M
Address: BLK 208A NEW UPPER CHANGI ROAD
CarParkType: MULTI-STOREY CAR PARK
Latitude: 1.325173
Longitude: 103.930886
-----------------------------------
CarParkID: Y22
Address: BLK 1001/1019,1023/1024 YISHUN INDUSTRIAL PARK A
CarParkType: SURFACE CAR PARK
Latitude: 1.441675
Longitude: 103.833891
-----------------------------------
CarParkID: BM29
Address: BLK 163 BUKIT MERAH CENTRAL
CarParkType: BASEMENT CAR PARK
Latitude: 1.283634
Longitude: 103.817099
LotType:  C
	TotalLots: 97
	AvailableLots: 78
-----------------------------------
CarParkID: BJ18
Address: BLK 401-408 FAJAR ROAD
CarParkType: SURFACE CAR PARK
Latitude: 1.380969
Longitude: 103.768111
LotType:  C
	TotalLots: 324
	AvailableLots: 119
-----------------------------------
CarParkID: SE35
Address: BLK 500/506B SERANGOON NORTH AVENUE 4
CarParkType: SURFACE CAR PARK
Latitude: 1.373098
Longitude: 103.876253
LotType:  C
	TotalLots: 217
	AvailableLots: 4
-----------------------------------
CarParkID: S110
Address: BLK 351 ANCHORVALE ROAD
CarParkType: MULTI-STOREY CAR PARK
Latitude: 1.393302
Longitude: 103.886621
LotType:  C
	TotalLots: 315
	AvailableLots: 178
-----------------------------------
CarParkID: K21
Address: BLK 58 DAKOTA CRESCENT
CarParkType: SURFACE CAR PARK
Latitude: 1.307065
Longitude: 103.888601
-----------------------------------
CarParkID: JM22
Address: BLK 674 JURONG WEST STREET 65
CarParkType: MULTI-STOREY CAR PARK
Latitude: 1.344748
Longitude: 103.702591
LotType:  C
	TotalLots: 538
	AvailableLots: 538
-----------------------------------
CarParkID: PL31
Address: BLK 301 PUNGGOL CENTRAL
CarParkType: MULTI-STOREY CAR PARK
Latitude: 1.403678
Longitude: 103.906198
LotType:  C
	TotalLots: 222
	AvailableLots: 128
-----------------------------------
CarParkID: CR2
Address: BLK 3/4 BEACH ROAD
CarParkType: SURFACE CAR PARK
Latitude: 1.304683
Longitude: 103.865658
LotType:  C
	TotalLots: 17
	AvailableLots: 0
-----------------------------------
CarParkID: TPM6
Address: BLK 35A LORONG 5 TOA PAYOH
CarParkType: MULTI-STOREY CAR PARK
Latitude: 1.334889
Longitude: 103.854623
LotType:  C
	TotalLots: 358
	AvailableLots: 141
-----------------------------------
CarParkID: B76
Address: BLK 761A BEDOK RESERVOIR VIEW
CarParkType: MULTI-STOREY CAR PARK
Latitude: 1.335899
Longitude: 103.934419
-----------------------------------
CarParkID: Q2A
Address: BLK 155-164 STIRLING ROAD
CarParkType: SURFACE CAR PARK
Latitude: 1.291647
Longitude: 103.804386
-----------------------------------
CarParkID: S0106
Address: SIN MING DRIVE OFF STREET
CarParkType: SURFACE CAR PARK
Latitude: 1.356693
Longitude: 103.836063
LotType:  C
	TotalLots: 
	AvailableLots: 59
-----------------------------------
CarParkID: B14
Address: BLK 412/413 BEDOK NORTH AVENUE 2
CarParkType: 
Latitude: 1.329159
Longitude: 103.931445
LotType:  C
	TotalLots: 208
	AvailableLots: 61
-----------------------------------
CarParkID: B24
Address: BLK 84/89 BEDOK NORTH AVENUE 4
CarParkType: 
Latitude: 1.332647
Longitude: 103.938295
LotType:  C
	TotalLots: 150
	AvailableLots: 39
-----------------------------------
CarParkID: SGLM
Address: BLK 4A SAINT GEORGE'S LANE
CarParkType: MULTI-STOREY CAR PARK
Latitude: 1.322662
Longitude: 103.860229
LotType:  C
	TotalLots: 230
	AvailableLots: 112
-----------------------------------
CarParkID: SB38
Address: BLK 129 CANBERRA STREET
CarParkType: MULTI-STOREY CAR PARK
Latitude: 1.444642
Longitude: 103.832692
LotType:  M
	TotalLots: 181
	AvailableLots: 108
LotType:  S
	TotalLots: 0
	AvailableLots: 0
LotType:  C
	TotalLots: 666
	AvailableLots: 388
LotType:  L
	TotalLots: 0
	AvailableLots: 0
-----------------------------------
CarParkID: TM43
Address: BLK 202A TAMPINES STREET 21
CarParkType: MULTI-STOREY CAR PARK
Latitude: 1.353387
Longitude: 103.952234
LotType:  C
	TotalLots: 247
	AvailableLots: 185
-----------------------------------
CarParkID: HG61
Address: BLK 559A HOUGANG STREET 51
CarParkType: MULTI-STOREY CAR PARK
Latitude: 1.379653
Longitude: 103.889154
LotType:  C
	TotalLots: 311
	AvailableLots: 145
-----------------------------------
CarParkID: HG70
Address: BLK 567A HOUGANG STREET 51
CarParkType: MULTI-STOREY CAR PARK
Latitude: 1.378973
Longitude: 103.888508
LotType:  C
	TotalLots: 348
	AvailableLots: 170
-----------------------------------
CarParkID: T35
Address: BLK 287/298/299A/299B TAMPINES STREET 22
CarParkType: SURFACE CAR PARK
Latitude: 1.348883
Longitude: 103.954237
LotType:  C
	TotalLots: 630
	AvailableLots: 193
-----------------------------------
CarParkID: JM32
Address: 697 JURONG WEST CENTRAL 3
CarParkType: MULTI-STOREY CAR PARK
Latitude: 1.341599
Longitude: 103.708081
LotType:  C
	TotalLots: 410
	AvailableLots: 251
-----------------------------------
CarParkID: DWSO
Address: BLK 40 & 41 MARGARET DRIVE
CarParkType: MULTI-STOREY CAR PARK
Latitude: 1.296467
Longitude: 103.806943
LotType:  C
	TotalLots: 613
	AvailableLots: 322
LotType:  H
	TotalLots: 50
	AvailableLots: 50
LotType:  Y
	TotalLots: 189
	AvailableLots: 134
-----------------------------------
CarParkID: TH3
Address: BLK 123 & 129 TENGAH DRIVE/PLANTATION CRESCENT
CarParkType: MULTI-STOREY CAR PARK
Latitude: 1.359125
Longitude: 103.734876
LotType:  C
	TotalLots: 558
	AvailableLots: 209
-----------------------------------
CarParkID: BM28
Address: BLK 117, 161 BUKIT MERAH CENTRAL
CarParkType: SURFACE CAR PARK
Latitude: 1.283999
Longitude: 103.815823
LotType:  C
	TotalLots: 51
	AvailableLots: 43
LotType:  H
	TotalLots: 50
	AvailableLots: 50
LotType:  Y
	TotalLots: 40
	AvailableLots: 30
-----------------------------------
CarParkID: Q87
Address: BLK 5A HOLLAND CLOSE
CarParkType: MULTI-STOREY CAR PARK
Latitude: 1.308878
Longitude: 103.796238
LotType:  C
	TotalLots: 414
	AvailableLots: 141
LotType:  Y
	TotalLots: 100
	AvailableLots: 45
LotType:  H
	TotalLots: 100
	AvailableLots: 0
-----------------------------------
CarParkID: PL32
Address: BLK 302 PUNGGOL PLACE
CarParkType: MULTI-STOREY CAR PARK
Latitude: 1.404847
Longitude: 103.904606
LotType:  C
	TotalLots: 203
	AvailableLots: 132
-----------------------------------
CarParkID: PDR2
Address: BLK 258 PASIR RIS ST 21
CarParkType: SURFACE/MULTI-STOREY CAR PARK
Latitude: 1.366925
Longitude: 103.964550
LotType:  C
	TotalLots: 222
	AvailableLots: 194
-----------------------------------
CarParkID: S104
Address: BLK 215 COMPASSVALE DRIVE
CarParkType: MULTI-STOREY CAR PARK
Latitude: 1.390244
Longitude: 103.893051
LotType:  C
	TotalLots: 339
	AvailableLots: 147
-----------------------------------
CarParkID: S105
Address: BLK 217 COMPASSVALE DRIVE
CarParkType: MULTI-STOREY CAR PARK
Latitude: 1.389722
Longitude: 103.894457
LotType:  C
	TotalLots: 367
	AvailableLots: 182
-----------------------------------
CarParkID: D0026
Address: DICKSON ROAD OFF STREET
CarParkType: SURFACE CAR PARK
Latitude: 1.305896
Longitude: 103.853567
LotType:  Y
	TotalLots: 
	AvailableLots: 0
-----------------------------------
CarParkID: B33
Address: BLK 131/133 BEDOK NORTH AVENUE 3
CarParkType: 
Latitude: 1.327241
Longitude: 103.935800
LotType:  C
	TotalLots: 129
	AvailableLots: 65
-----------------------------------
CarParkID: BBM3
Address: BLK 289H BUKIT BATOK STREET 25
CarParkType: MULTI-STOREY CAR PARK
Latitude: 1.344506
Longitude: 103.759917
LotType:  C
	TotalLots: 1210
	AvailableLots: 526
-----------------------------------
CarParkID: PL83
Address: BLK 419A NORTHSHORE DRIVE
CarParkType: BASEMENT CAR PARK
Latitude: 1.418511
Longitude: 103.902113
-----------------------------------
CarParkID: PM7
Address: BLK 257A PASIR RIS STREET 21
CarParkType: MULTI-STOREY CAR PARK
Latitude: 1.367557
Longitude: 103.963250
LotType:  C
	TotalLots: 239
	AvailableLots: 90
-----------------------------------
CarParkID: TJ33
Address: BLK 328A TAH CHING ROAD
CarParkType: MULTI-STOREY CAR PARK
Latitude: 1.337109
Longitude: 103.723249
LotType:  C
	TotalLots: 441
	AvailableLots: 176
-----------------------------------
CarParkID: SB20
Address: BLK 505 CANBERRA LINK
CarParkType: MULTI-STOREY CAR PARK
Latitude: 1.450271
Longitude: 103.822508
LotType:  C
	TotalLots: 359
	AvailableLots: 253
-----------------------------------
CarParkID: U38
Address: BLK 185/187 BUKIT BATOK WEST AVENUE 6
CarParkType: SURFACE CAR PARK
Latitude: 1.346725
Longitude: 103.744577
LotType:  C
	TotalLots: 115
	AvailableLots: 0
-----------------------------------
CarParkID: BE36
Address: BLK 278-281 BISHAN STREET 24
CarParkType: SURFACE CAR PARK
Latitude: 1.357495
Longitude: 103.844535
LotType:  C
	TotalLots: 58
	AvailableLots: 29
-----------------------------------
CarParkID: M4
Address: BLK 22/34/36 CIRCUIT ROAD
CarParkType: 
Latitude: 1.329023
Longitude: 103.887660
LotType:  C
	TotalLots: 470
	AvailableLots: 184
-----------------------------------
CarParkID: A12
Address: BLK 229/230 ANG MO KIO STREET 22
CarParkType: 
Latitude: 1.368568
Longitude: 103.838759
LotType:  C
	TotalLots: 194
	AvailableLots: 93
-----------------------------------
CarParkID: SE31
Address: BLK 514/520 SERANGOON NORTH AVENUE 4
CarParkType: SURFACE CAR PARK
Latitude: 1.371511
Longitude: 103.873672
LotType:  C
	TotalLots: 187
	AvailableLots: 14
-----------------------------------
CarParkID: HR1
Address: BLK 1-3 HAIG ROAD
CarParkType: SURFACE CAR PARK
Latitude: 1.311462
Longitude: 103.897545
LotType:  C
	TotalLots: 78
	AvailableLots: 4
-----------------------------------
CarParkID: SK66
Address: BLK 156A RIVERVALE CRESCENT
CarParkType: MULTI-STOREY CAR PARK
Latitude: 1.391666
Longitude: 103.906938
LotType:  C
	TotalLots: 520
	AvailableLots: 407
LotType:  H
	TotalLots: 100
	AvailableLots: 0
LotType:  Y
	TotalLots: 520
	AvailableLots: 491
-----------------------------------
CarParkID: W14
Address: BLK 210/218 MARSILING CRESCENT
CarParkType: SURFACE CAR PARK
Latitude: 1.447052
Longitude: 103.772974
LotType:  C
	TotalLots: 328
	AvailableLots: 112
-----------------------------------
CarParkID: SK60
Address: BLK 404 FERNVALE LANE
CarParkType: MULTI-STOREY CAR PARK
Latitude: 1.387759
Longitude: 103.873260
LotType:  C
	TotalLots: 867
	AvailableLots: 507
-----------------------------------
CarParkID: J26
Address: BLK 351/353 JURONG EAST STREET 31
CarParkType: SURFACE CAR PARK
Latitude: 1.344921
Longitude: 103.730596
LotType:  C
	TotalLots: 31
	AvailableLots: 9
-----------------------------------
CarParkID: HG15
Address: BLK 208-210 HOUGANG STREET 21
CarParkType: SURFACE CAR PARK
Latitude: 1.358960
Longitude: 103.886712
LotType:  C
	TotalLots: 123
	AvailableLots: 68
-----------------------------------
CarParkID: TM48
Address: BLK 890 TAMPINES AVENUE 1
CarParkType: MULTI-STOREY CAR PARK
Latitude: 1.347078
Longitude: 103.934141
LotType:  C
	TotalLots: 210
	AvailableLots: 82
-----------------------------------
CarParkID: A38
Address: BLK 407/410/421 ANG MO KIO AVENUE 10
CarParkType: 
Latitude: 1.363964
Longitude: 103.854588
LotType:  C
	TotalLots: 938
	AvailableLots: 483
-----------------------------------
CarParkID: Y28M
Address: BLK 840A YISHUN STREET 81
CarParkType: MULTI-STOREY CAR PARK
Latitude: 1.415445
Longitude: 103.834371
LotType:  C
	TotalLots: 375
	AvailableLots: 212
-----------------------------------
CarParkID: Y49L
Address: BLK 418/419 YISHUN AVENUE 11
CarParkType: SURFACE CAR PARK
Latitude: 1.423968
Longitude: 103.847265
LotType:  C
	TotalLots: 19
	AvailableLots: 5
-----------------------------------
CarParkID: HG99
Address: BLK 174A-174D HOUGANG AVENUE 1
CarParkType: SURFACE CAR PARK
Latitude: 1.349434
Longitude: 103.889048
LotType:  C
	TotalLots: 162
	AvailableLots: 62
-----------------------------------
CarParkID: TPMC
Address: BLK 110A LORONG 1 TOA PAYOH
CarParkType: MULTI-STOREY CAR PARK
Latitude: 1.341935
Longitude: 103.846160
LotType:  C
	TotalLots: 633
	AvailableLots: 470
-----------------------------------
CarParkID: P15
Address: BLK 413 PANDAN GARDENS
CarParkType: SURFACE CAR PARK
Latitude: 1.319834
Longitude: 103.748148
LotType:  C
	TotalLots: 90
	AvailableLots: 47
-----------------------------------
CarParkID: UBM2
Address: BLK 8 UPPER BOON KENG ROAD
CarParkType: MULTI-STOREY CAR PARK
Latitude: 1.313108
Longitude: 103.870389
LotType:  C
	TotalLots: 485
	AvailableLots: 277
-----------------------------------
CarParkID: S103
Address: BLK 293 COMPASSVALE CRESCENT
CarParkType: MULTI-STOREY CAR PARK
Latitude: 1.396338
Longitude: 103.895287
LotType:  C
	TotalLots: 366
	AvailableLots: 173
-----------------------------------
CarParkID: B94
Address: BLK 513A BEDOK NORTH AVENUE 2
CarParkType: 
Latitude: 1.332260
Longitude: 103.929357
LotType:  C
	TotalLots: 438
	AvailableLots: 261
-----------------------------------
CarParkID: BRBL
Address: BLK 665 BUFFALO ROAD LOADING/UNLOADING BAYS
CarParkType: SURFACE CAR PARK
Latitude: 1.306596
Longitude: 103.850707
LotType:  C
	TotalLots: 10
	AvailableLots: 6
-----------------------------------
CarParkID: HG39
Address: HOUGANG SPORTS COMPLEX
CarParkType: SURFACE CAR PARK
Latitude: 1.369943
Longitude: 103.885967
LotType:  C
	TotalLots: 204
	AvailableLots: 171
-----------------------------------
CarParkID: H0003
Address: HAMILTON ROAD OFF STREET
CarParkType: SURFACE CAR PARK
Latitude: 1.311690
Longitude: 103.861745
LotType:  C
	TotalLots: 
	AvailableLots: 15
-----------------------------------
CarParkID: PL36
Address: BLK 305 PUNGGOL ROAD
CarParkType: COVERED CAR PARK
Latitude: 1.406019
Longitude: 103.906223
LotType:  C
	TotalLots: 382
	AvailableLots: 105
-----------------------------------
CarParkID: T0140
Address: TANJONG KATONG ROAD OFF STREET
CarParkType: SURFACE CAR PARK
Latitude: 1.306840
Longitude: 103.896081
LotType:  C
	TotalLots: 
	AvailableLots: 0
-----------------------------------
CarParkID: B6
Address: BLK 204/209 NEW UPPER CHANGI ROAD
CarParkType: 
Latitude: 1.326330
Longitude: 103.930340
LotType:  C
	TotalLots: 516
	AvailableLots: 468
-----------------------------------
CarParkID: ECM
Address: BLK 31A EUNOS CRESCENT
CarParkType: MULTI-STOREY CAR PARK
Latitude: 1.319997
Longitude: 103.901627
LotType:  C
	TotalLots: 407
	AvailableLots: 233
-----------------------------------
CarParkID: PM4
Address: BLK 231A PASIR RIS DRIVE 4
CarParkType: MULTI-STOREY CAR PARK
Latitude: 1.374105
Longitude: 103.961442
LotType:  C
	TotalLots: 809
	AvailableLots: 807
-----------------------------------
CarParkID: T49
Address: BLK 875/886A TAMPINES STREET 84 /AVENUE 8
CarParkType: SURFACE CAR PARK
Latitude: 1.351990
Longitude: 103.931430
LotType:  C
	TotalLots: 468
	AvailableLots: 135
-----------------------------------
CarParkID: B44B
Address: BLKS 556/557 BEDOK NORTH STREET 3
CarParkType: SURFACE CAR PARK
Latitude: 1.332301
Longitude: 103.922911
LotType:  C
	TotalLots: 102
	AvailableLots: 42
-----------------------------------
CarParkID: H0015
Address: HINDOO ROAD OFF STREET
CarParkType: SURFACE CAR PARK
Latitude: 1.308590
Longitude: 103.854066
LotType:  C
	TotalLots: 
	AvailableLots: 10
-----------------------------------
CarParkID: HG52
Address: BLK 556-566 HOUGANG STREET 51
CarParkType: SURFACE CAR PARK
Latitude: 1.380282
Longitude: 103.889755
LotType:  C
	TotalLots: 192
	AvailableLots: 8
-----------------------------------
CarParkID: TM5
Address: BLK 492A TAMPINES STREET 45
CarParkType: MULTI-STOREY CAR PARK
Latitude: 1.363108
Longitude: 103.954079
LotType:  C
	TotalLots: 501
	AvailableLots: 245
-----------------------------------
CarParkID: Y68M
Address: BLK 504 YISHUN STREET 51
CarParkType: MULTI-STOREY CAR PARK
Latitude: 1.418396
Longitude: 103.844596
LotType:  C
	TotalLots: 595
	AvailableLots: 245
-----------------------------------
CarParkID: TWM4
Address: BLK 165 TECK WHYE CRESCENT
CarParkType: MULTI-STOREY CAR PARK
Latitude: 1.382920
Longitude: 103.753944
LotType:  C
	TotalLots: 200
	AvailableLots: 118
-----------------------------------
CarParkID: PDQ5
Address: BLK 57 DAWSON RD
CarParkType: SURFACE/MULTI-STOREY CAR PARK
Latitude: 1.292679
Longitude: 103.810982
LotType:  C
	TotalLots: 135
	AvailableLots: 113
-----------------------------------
CarParkID: M0078
Address: MARITIME SQUARE D OFF STREET
CarParkType: SURFACE CAR PARK
Latitude: 1.266557
Longitude: 103.820371
LotType:  C
	TotalLots: 
	AvailableLots: 241
-----------------------------------
CarParkID: B43
Address: BLK 519/522 553 BEDOK NORTH AVENUE 1/2
CarParkType: 
Latitude: 1.331105
Longitude: 103.927603
LotType:  C
	TotalLots: 217
	AvailableLots: 73
-----------------------------------
CarParkID: SK31
Address: BLK 195A RIVERVALE DRIVE
CarParkType: MULTI-STOREY CAR PARK
Latitude: 1.393208
Longitude: 103.902566
LotType:  C
	TotalLots: 618
	AvailableLots: 448
LotType:  H
	TotalLots: 100
	AvailableLots: 0
LotType:  Y
	TotalLots: 129
	AvailableLots: 96
-----------------------------------
CarParkID: TE23
Address: BLK 59 ENG HOON STREET
CarParkType: SURFACE CAR PARK
Latitude: 1.284258
Longitude: 103.833526
-----------------------------------
CarParkID: MP1M
Address: BLK 65A MARINE DRIVE
CarParkType: MULTI-STOREY CAR PARK
Latitude: 1.302966
Longitude: 103.909913
LotType:  C
	TotalLots: 522
	AvailableLots: 275
-----------------------------------
CarParkID: W45
Address: BLK 421A WOODLANDS STREET 41
CarParkType: MULTI-STOREY CAR PARK
Latitude: 1.427981
Longitude: 103.775162
LotType:  C
	TotalLots: 324
	AvailableLots: 67
-----------------------------------
CarParkID: SK29
Address: BLK 204 COMPASSVALE DRIVE
CarParkType: MULTI-STOREY CAR PARK
Latitude: 1.388022
Longitude: 103.895390
LotType:  C
	TotalLots: 526
	AvailableLots: 433
LotType:  Y
	TotalLots: 135
	AvailableLots: 123
LotType:  H
	TotalLots: 100
	AvailableLots: 0
-----------------------------------
CarParkID: JM14
Address: BLK 635A JURONG WEST STREET 65
CarParkType: MULTI-STOREY CAR PARK
Latitude: 1.342400
Longitude: 103.698769
LotType:  C
	TotalLots: 493
	AvailableLots: 243
-----------------------------------
CarParkID: BJ14
Address: BLK 257 BANGKIT ROAD
CarParkType: SURFACE CAR PARK
Latitude: 1.378986
Longitude: 103.773529
LotType:  C
	TotalLots: 63
	AvailableLots: 37
-----------------------------------
CarParkID: HG1
Address: BLK 1,2,6,7 HOUGANG AVENUE 3
CarParkType: SURFACE CAR PARK
Latitude: 1.362165
Longitude: 103.894179
LotType:  C
	TotalLots: 164
	AvailableLots: 95
-----------------------------------
CarParkID: D0006
Address: DUXTON HILL OFF STREET
CarParkType: SURFACE CAR PARK
Latitude: 1.279121
Longitude: 103.843077
LotType:  C
	TotalLots: 
	AvailableLots: 26
-----------------------------------
CarParkID: B11
Address: BLK 416/418 BEDOK NORTH AVENUE 2
CarParkType: 
Latitude: 1.328342
Longitude: 103.930396
LotType:  C
	TotalLots: 1011
	AvailableLots: 474
-----------------------------------
CarParkID: C33
Address: BLK 601-613 CLEMENTI WEST STREET 1
CarParkType: 
Latitude: 1.304559
Longitude: 103.766858
LotType:  C
	TotalLots: 805
	AvailableLots: 312
-----------------------------------
CarParkID: JM4
Address: BLK 684 JURONG WEST STREET 64
CarParkType: MULTI-STOREY CAR PARK
Latitude: 1.344441
Longitude: 103.703912
LotType:  C
	TotalLots: 435
	AvailableLots: 259
-----------------------------------
CarParkID: W578
Address: BLK 578A WOODLANDS DRIVE 16
CarParkType: MULTI-STOREY CAR PARK
Latitude: 1.431363
Longitude: 103.796691
LotType:  C
	TotalLots: 400
	AvailableLots: 215
-----------------------------------
CarParkID: W54
Address: BLK 824A WOODLANDS STREET 81
CarParkType: MULTI-STOREY CAR PARK
Latitude: 1.439418
Longitude: 103.789075
LotType:  C
	TotalLots: 267
	AvailableLots: 92
-----------------------------------
CarParkID: GM2A
Address: BLK 8A GHIM MOH ROAD
CarParkType: MULTI-STOREY CAR PARK
Latitude: 1.310870
Longitude: 103.787264
LotType:  C
	TotalLots: 146
	AvailableLots: 58
-----------------------------------
CarParkID: TJ39
Address: 138 YUAN CHING ROAD
CarParkType: MULTI-STOREY CAR PARK
Latitude: 1.327906
Longitude: 103.723324
LotType:  C
	TotalLots: 675
	AvailableLots: 300
-----------------------------------
CarParkID: BM1
Address: BLK 28 JALAN BUKIT MERAH
CarParkType: 
Latitude: 1.286303
Longitude: 103.809571
LotType:  C
	TotalLots: 60
	AvailableLots: 0
-----------------------------------
CarParkID: EI3
Address: BLK 410 TO 417 EUNOS ROAD 5
CarParkType: SURFACE CAR PARK
Latitude: 1.318846
Longitude: 103.898379
LotType:  C
	TotalLots: 265
	AvailableLots: 42
-----------------------------------
CarParkID: HG81
Address: DEFU LANE 1
CarParkType: SURFACE CAR PARK
Latitude: 1.360927
Longitude: 103.899313
-----------------------------------
CarParkID: TPM3
Address: BLK 171A LORONG 1 TOA PAYOH
CarParkType: MULTI-STOREY CAR PARK
Latitude: 1.330748
Longitude: 103.842234
LotType:  C
	TotalLots: 370
	AvailableLots: 211
-----------------------------------
CarParkID: B63
Address: BLK 739/745 BEDOK RESERVOIR ROAD
CarParkType: 
Latitude: 1.338154
Longitude: 103.922616
LotType:  C
	TotalLots: 99
	AvailableLots: 49
-----------------------------------
CarParkID: CC5
Address: BLK 27 CHAI CHEE ROAD
CarParkType: SURFACE CAR PARK
Latitude: 1.324822
Longitude: 103.923400
LotType:  C
	TotalLots: 104
	AvailableLots: 63
-----------------------------------
CarParkID: CK48
Address: BLK 604A CHOA CHU KANG STREET 62
CarParkType: MULTI-STOREY CAR PARK
Latitude: 1.397402
Longitude: 103.745167
LotType:  C
	TotalLots: 287
	AvailableLots: 118
-----------------------------------
CarParkID: Y35
Address: BLK 632/641 YISHUN STREET 61
CarParkType: SURFACE CAR PARK
Latitude: 1.419694
Longitude: 103.838474
LotType:  C
	TotalLots: 402
	AvailableLots: 123
-----------------------------------
CarParkID: BJ8
Address: BLK 201/218 PETIR ROAD
CarParkType: 
Latitude: 1.374700
Longitude: 103.773596
LotType:  C
	TotalLots: 988
	AvailableLots: 370
-----------------------------------
CarParkID: SB29
Address: BLK 508 WELLINGTON CIRCLE
CarParkType: MULTI-STOREY CAR PARK
Latitude: 1.453030
Longitude: 103.820084
LotType:  C
	TotalLots: 628
	AvailableLots: 391
-----------------------------------
CarParkID: SB10
Address: BLK 481A SEMBAWANG DRIVE
CarParkType: MULTI-STOREY CAR PARK
Latitude: 1.452495
Longitude: 103.815393
LotType:  C
	TotalLots: 549
	AvailableLots: 386
-----------------------------------
CarParkID: CK62
Address: BLK 687 CHOA CHU KANG DRIVE
CarParkType: MULTI-STOREY CAR PARK
Latitude: 1.403839
Longitude: 103.749890
LotType:  C
	TotalLots: 1466
	AvailableLots: 712
-----------------------------------
CarParkID: J69M
Address: BLK 967 JURONG WEST 91 JURONG WEST STREET 93
CarParkType: MULTI-STOREY CAR PARK
Latitude: 1.341343
Longitude: 103.693346
-----------------------------------
CarParkID: PL69
Address: BLK 661 EDGEDALE PLAINS
CarParkType: MULTI-STOREY CAR PARK
Latitude: 1.402534
Longitude: 103.917614
LotType:  C
	TotalLots: 699
	AvailableLots: 326
-----------------------------------
CarParkID: P40L
Address: BLK 740 TO 745 PASIR RIS STREET 71
CarParkType: SURFACE CAR PARK
Latitude: 1.378101
Longitude: 103.935933
LotType:  C
	TotalLots: 6
	AvailableLots: 2
-----------------------------------
CarParkID: Y4T
Address: BLK 137 YISHUN RING ROAD
CarParkType: SURFACE CAR PARK
Latitude: 1.432447
Longitude: 103.830209
LotType:  C
	TotalLots: 97
	AvailableLots: 47
-----------------------------------
CarParkID: PM32
Address: BLK 631A PASIR RIS DRIVE 3
CarParkType: MULTI-STOREY CAR PARK
Latitude: 1.379306
Longitude: 103.940098
LotType:  C
	TotalLots: 0
	AvailableLots: 0
-----------------------------------
CarParkID: W85
Address: BLK 622A WOODLANDS DRIVE 52
CarParkType: MULTI-STOREY CAR PARK
Latitude: 1.434097
Longitude: 103.799101
LotType:  C
	TotalLots: 515
	AvailableLots: 335
-----------------------------------
CarParkID: 21
Address: Centrepoint
CarParkType: MULTI-STOREY CAR PARK
Latitude: 1.302000
Longitude: 103.839750
LotType:  C
	TotalLots: 
	AvailableLots: 336
-----------------------------------
CarParkID: BJ39
Address: BLK 537A BUKIT PANJANG RING ROAD
CarParkType: MULTI-STOREY CAR PARK
Latitude: 1.384231
Longitude: 103.762860
LotType:  C
	TotalLots: 550
	AvailableLots: 344
-----------------------------------
CarParkID: J71
Address: BLK 812/826 JURONG WEST STREET 81
CarParkType: SURFACE CAR PARK
Latitude: 1.346227
Longitude: 103.694174
LotType:  C
	TotalLots: 450
	AvailableLots: 0
-----------------------------------
CarParkID: P14
Address: BLK 403/408 PANDAN GARDENS
CarParkType: SURFACE CAR PARK
Latitude: 1.319353
Longitude: 103.749175
LotType:  C
	TotalLots: 765
	AvailableLots: 480
-----------------------------------
CarParkID: SB40
Address: BLK 115 CANBERRA WALK
CarParkType: MULTI-STOREY CAR PARK
Latitude: 1.446071
Longitude: 103.828703
LotType:  C
	TotalLots: 263
	AvailableLots: 171
LotType:  L
	TotalLots: 0
	AvailableLots: 0
LotType:  M
	TotalLots: 88
	AvailableLots: 38
LotType:  S
	TotalLots: 0
	AvailableLots: 0
-----------------------------------
CarParkID: SIM4
Address: BLK 248 SIMEI STREET 3
CarParkType: MULTI-STOREY CAR PARK
Latitude: 1.343593
Longitude: 103.953546
LotType:  C
	TotalLots: 590
	AvailableLots: 403
-----------------------------------
CarParkID: HE9
Address: BLK 118/119 BUKIT MERAH VIEW
CarParkType: SURFACE CAR PARK
Latitude: 1.283707
Longitude: 103.821193
LotType:  C
	TotalLots: 89
	AvailableLots: 45
-----------------------------------
CarParkID: CK15
Address: BLK 288/295 CHOA CHU KANG AVENUE 2/3
CarParkType: SURFACE CAR PARK
Latitude: 1.378426
Longitude: 103.740912
LotType:  C
	TotalLots: 246
	AvailableLots: 9
-----------------------------------
CarParkID: S39L
Address: BLK 542A/542 SERANGOON NORTH AVENUE 4
CarParkType: SURFACE CAR PARK
Latitude: 1.373907
Longitude: 103.871752
LotType:  C
	TotalLots: 5
	AvailableLots: 4
-----------------------------------
CarParkID: B48B
Address: BLK 547C BEDOK NORTH AVENUE 1
CarParkType: BASEMENT CAR PARK
Latitude: 1.329966
Longitude: 103.925758
LotType:  C
	TotalLots: 73
	AvailableLots: 24
-----------------------------------
CarParkID: B77
Address: BLK 765A BEDOK RESERVOIR VIEW
CarParkType: MULTI-STOREY CAR PARK
Latitude: 1.335690
Longitude: 103.936333
-----------------------------------
CarParkID: T26
Address: BLK 249/266 TAMPINES STREET 21
CarParkType: SURFACE CAR PARK
Latitude: 1.352220
Longitude: 103.949098
LotType:  C
	TotalLots: 293
	AvailableLots: 138
-----------------------------------
CarParkID: GE1D
Address: BLK 1005-1012 ALJUNIED CRESCENT
CarParkType: SURFACE CAR PARK
Latitude: 1.321853
Longitude: 103.889163
-----------------------------------
CarParkID: BL10
Address: BLK 188/191 BOON LAY DRIVE
CarParkType: SURFACE CAR PARK
Latitude: 1.343761
Longitude: 103.711425
LotType:  C
	TotalLots: 239
	AvailableLots: 104
-----------------------------------
CarParkID: W101
Address: BLK 686 WOODLANDS DRIVE 73
CarParkType: MULTI-STOREY CAR PARK
Latitude: 1.442544
Longitude: 103.805785
LotType:  C
	TotalLots: 486
	AvailableLots: 301
-----------------------------------
CarParkID: Y41M
Address: BLK 307 YISHUN RING ROAD/CENTRAL
CarParkType: MULTI-STOREY CAR PARK
Latitude: 1.430750
Longitude: 103.840884
LotType:  C
	TotalLots: 344
	AvailableLots: 252
-----------------------------------
CarParkID: B79
Address: BLK 772A BEDOK RESERVOIR VIEW
CarParkType: 
Latitude: 1.336776
Longitude: 103.937407
LotType:  C
	TotalLots: 1719
	AvailableLots: 910
-----------------------------------
CarParkID: CK24
Address: BLK 350-351 CHOA CHU KANG CENTRAL
CarParkType: SURFACE CAR PARK
Latitude: 1.383325
Longitude: 103.743310
LotType:  C
	TotalLots: 30
	AvailableLots: 0
-----------------------------------
CarParkID: BJMP
Address: BLK 259B BANGKIT ROAD
CarParkType: MECHANISED CAR PARK
Latitude: 1.377766
Longitude: 103.773515
LotType:  C
	TotalLots: 60
	AvailableLots: 38
-----------------------------------
CarParkID: A89
Address: BLK 101/102 ANG MO KIO STREET 11
CarParkType: SURFACE CAR PARK
Latitude: 1.370459
Longitude: 103.839368
-----------------------------------
CarParkID: SD5
Address: BLK 53 SIMS PLACE
CarParkType: SURFACE CAR PARK
Latitude: 1.317768
Longitude: 103.879915
LotType:  C
	TotalLots: 64
	AvailableLots: 37
-----------------------------------
CarParkID: CK35
Address: BLK 513A CHOA CHU KANG STREET 51
CarParkType: MULTI-STOREY CAR PARK
Latitude: 1.390326
Longitude: 103.742397
LotType:  C
	TotalLots: 345
	AvailableLots: 156
-----------------------------------
CarParkID: W185
Address: BLK 185 WOODLANDS STREET 13
CarParkType: MULTI-STOREY CAR PARK
Latitude: 1.436267
Longitude: 103.776472
LotType:  C
	TotalLots: 540
	AvailableLots: 223
-----------------------------------
CarParkID: TP60
Address: BLK 236 TO 240 TOA PAYOH LORONG 1
CarParkType: SURFACE CAR PARK
Latitude: 1.340164
Longitude: 103.852258
LotType:  C
	TotalLots: 275
	AvailableLots: 70
-----------------------------------
CarParkID: PM38
Address: BLK 736A PASIR RIS DRIVE 10
CarParkType: MULTI-STOREY CAR PARK
Latitude: 1.378947
Longitude: 103.937242
LotType:  C
	TotalLots: 248
	AvailableLots: 79
-----------------------------------
CarParkID: TBK
Address: BLK 84 TELOK BLANGAH HEIGHTS
CarParkType: SURFACE CAR PARK
Latitude: 1.277360
Longitude: 103.810047
-----------------------------------
CarParkID: BJ32
Address: BLK 518A JELAPANG ROAD
CarParkType: MULTI-STOREY CAR PARK
Latitude: 1.386563
Longitude: 103.766935
LotType:  C
	TotalLots: 484
	AvailableLots: 295
-----------------------------------
CarParkID: W44
Address: BLK 413A WOODLANDS STREET 41
CarParkType: MULTI-STOREY CAR PARK
Latitude: 1.427989
Longitude: 103.772264
LotType:  C
	TotalLots: 245
	AvailableLots: 21
-----------------------------------
CarParkID: DRM5
Address: BLOCK 110 DEPOT ROAD
CarParkType: BASEMENT CAR PARK
Latitude: 1.281331
Longitude: 103.809477
LotType:  C
	TotalLots: 84
	AvailableLots: 28
-----------------------------------
CarParkID: Y69M
Address: BLK 513 YISHUN STREET 51
CarParkType: MULTI-STOREY CAR PARK
Latitude: 1.416014
Longitude: 103.844080
LotType:  C
	TotalLots: 350
	AvailableLots: 160
-----------------------------------
CarParkID: A8
Address: BLK 209/210 ANG MO KIO STREET 22
CarParkType: 
Latitude: 1.368756
Longitude: 103.843308
LotType:  C
	TotalLots: 48
	AvailableLots: 1
-----------------------------------
CarParkID: B10
Address: BLK 404/413 BEDOK NORTH AVENUE 3
CarParkType: 
Latitude: 1.329028
Longitude: 103.933708
LotType:  C
	TotalLots: 516
	AvailableLots: 197
-----------------------------------
CarParkID: MM7
Address: BLK 76 CIRCUIT ROAD
CarParkType: MULTI-STOREY CAR PARK
Latitude: 1.325465
Longitude: 103.889894
LotType:  C
	TotalLots: 436
	AvailableLots: 382
-----------------------------------
CarParkID: PM11
Address: BLK 269A PASIR RIS STREET 21
CarParkType: MULTI-STOREY CAR PARK
Latitude: 1.364793
Longitude: 103.963457
LotType:  C
	TotalLots: 227
	AvailableLots: 71
-----------------------------------
CarParkID: CK18
Address: BLK 130/132 CHOA CHU KANG AVENUE 1
CarParkType: SURFACE CAR PARK
Latitude: 1.380998
Longitude: 103.750623
LotType:  C
	TotalLots: 98
	AvailableLots: 25
-----------------------------------
CarParkID: HG40
Address: BLK 1 TO 32, 37 TO 38 DEFU LANE 10
CarParkType: SURFACE CAR PARK
Latitude: 1.352118
Longitude: 103.892084
-----------------------------------
CarParkID: 64
Address: Junction 8
CarParkType: MULTI-STOREY CAR PARK
Latitude: 1.350521
Longitude: 103.848590
LotType:  C
	TotalLots: 
	AvailableLots: 244
-----------------------------------
CarParkID: U1
Address: BLK 101/110 BUKIT BATOK WEST AVENUE 6
CarParkType: 
Latitude: 1.348390
Longitude: 103.746982
LotType:  C
	TotalLots: 516
	AvailableLots: 166
-----------------------------------
CarParkID: Y8
Address: BLK 731/746 YISHUN STREET 71/72/AVENUE 5
CarParkType: 
Latitude: 1.429445
Longitude: 103.831278
LotType:  C
	TotalLots: 697
	AvailableLots: 314
-----------------------------------
CarParkID: A29
Address: BLK 347 ANG MO KIO AVENUE 3
CarParkType: 
Latitude: 1.367226
Longitude: 103.848716
LotType:  C
	TotalLots: 435
	AvailableLots: 217
-----------------------------------
CarParkID: J36
Address: BLK 543/551 JURONG WEST STREET 42
CarParkType: SURFACE CAR PARK
Latitude: 1.352171
Longitude: 103.715456
LotType:  C
	TotalLots: 482
	AvailableLots: 116
-----------------------------------
CarParkID: CK12
Address: BLK 409/413 CHOA CHU KANG AVENUE 3
CarParkType: SURFACE CAR PARK
Latitude: 1.381285
Longitude: 103.741815
LotType:  C
	TotalLots: 218
	AvailableLots: 47
-----------------------------------
CarParkID: SPS
Address: BLK 101/102 SPOTTISWOODE PARK CAR PARK
CarParkType: SURFACE CAR PARK
Latitude: 1.275095
Longitude: 103.836173
LotType:  H
	TotalLots: 50
	AvailableLots: 50
LotType:  Y
	TotalLots: 31
	AvailableLots: 16
LotType:  C
	TotalLots: 98
	AvailableLots: 60
-----------------------------------
CarParkID: SE18
Address: BLK 330/335 SERANGOON AVENUE 3
CarParkType: SURFACE CAR PARK
Latitude: 1.350197
Longitude: 103.870464
LotType:  C
	TotalLots: 279
	AvailableLots: 76
-----------------------------------
CarParkID: U56
Address: BLK 443 BUKIT BATOK WEST AVENUE 8
CarParkType: MULTI-STOREY CAR PARK
Latitude: 1.356146
Longitude: 103.737330
LotType:  C
	TotalLots: 1004
	AvailableLots: 331
-----------------------------------
CarParkID: SB46
Address: BLK 126 CANBERRA STREET
CarParkType: MULTI-STOREY CAR PARK
Latitude: 1.445987
Longitude: 103.834356
LotType:  C
	TotalLots: 443
	AvailableLots: 167
-----------------------------------
CarParkID: A56
Address: BLK 725/730 ANG MO KIO AVENUE 8
CarParkType: SURFACE CAR PARK
Latitude: 1.372698
Longitude: 103.847146
-----------------------------------
CarParkID: MM2
Address: BLK 52A PIPIT ROAD
CarParkType: MULTI-STOREY CAR PARK
Latitude: 1.324339
Longitude: 103.886094
LotType:  C
	TotalLots: 350
	AvailableLots: 208
-----------------------------------
CarParkID: W36
Address: BLK 801-810 WOODLANDS STREET 81
CarParkType: SURFACE CAR PARK
Latitude: 1.441378
Longitude: 103.786419
LotType:  C
	TotalLots: 539
	AvailableLots: 77
-----------------------------------
CarParkID: JB3
Address: BLK 6,12,14 KAMPONG ARANG ROAD
CarParkType: SURFACE CAR PARK
Latitude: 1.300524
Longitude: 103.884288
LotType:  C
	TotalLots: 25
	AvailableLots: 17
LotType:  H
	TotalLots: 10
	AvailableLots: 0
LotType:  Y
	TotalLots: 19
	AvailableLots: 16
-----------------------------------
CarParkID: T56
Address: BLK 827A TAMPINES STREET 81
CarParkType: SURFACE CAR PARK
Latitude: 1.350085
Longitude: 103.932876
-----------------------------------
CarParkID: PL38
Address: BLK 612 PUNGGOL DRIVE
CarParkType: MULTI-STOREY CAR PARK
Latitude: 1.404599
Longitude: 103.908634
LotType:  C
	TotalLots: 10
	AvailableLots: 10
-----------------------------------
CarParkID: SK97
Address: BLK 350 ANCHORVALE ROAD
CarParkType: SURFACE CAR PARK
Latitude: 1.392860
Longitude: 103.886241
LotType:  C
	TotalLots: 47
	AvailableLots: 0
-----------------------------------
CarParkID: Y41
Address: BLK 302-314 YISHUN CENTRAL/RING ROAD
CarParkType: SURFACE CAR PARK
Latitude: 1.430135
Longitude: 103.839931
LotType:  C
	TotalLots: 478
	AvailableLots: 178
-----------------------------------
CarParkID: BA4
Address: BLK 113 ALKAFF CRESCENT
CarParkType: 
Latitude: 1.335259
Longitude: 103.872948
LotType:  C
	TotalLots: 964
	AvailableLots: 255
-----------------------------------
CarParkID: W88
Address: BLK 656A WOODLANDS RING ROAD
CarParkType: MULTI-STOREY CAR PARK
Latitude: 1.437220
Longitude: 103.798716
LotType:  C
	TotalLots: 443
	AvailableLots: 277
-----------------------------------
CarParkID: KB20
Address: BLK 49A WHAMPOA SOUTH
CarParkType: MULTI-STOREY CAR PARK
Latitude: 1.323749
Longitude: 103.866442
LotType:  C
	TotalLots: 225
	AvailableLots: 115
-----------------------------------
CarParkID: K7
Address: BLK 51 OLD AIRPORT ROAD
CarParkType: 
Latitude: 1.308895
Longitude: 103.886017
LotType:  C
	TotalLots: 159
	AvailableLots: 21
-----------------------------------
CarParkID: HG89
Address: BLK 435A HOUGANG AVENUE 8
CarParkType: MULTI-STOREY CAR PARK
Latitude: 1.377842
Longitude: 103.894029
LotType:  C
	TotalLots: 387
	AvailableLots: 301
-----------------------------------
CarParkID: W95
Address: BLK 788A WOODLANDS CRESCENT
CarParkType: MULTI-STOREY CAR PARK
Latitude: 1.444172
Longitude: 103.801780
LotType:  C
	TotalLots: 464
	AvailableLots: 299
-----------------------------------
CarParkID: BE8
Address: BLK 145-150A, 151 BISHAN STREET 11
CarParkType: 
Latitude: 1.344436
Longitude: 103.855315
LotType:  C
	TotalLots: 544
	AvailableLots: 293
-----------------------------------
CarParkID: W80
Address: BLK 775A WOODLANDS CRESCENT
CarParkType: MULTI-STOREY CAR PARK
Latitude: 1.448166
Longitude: 103.800342
LotType:  C
	TotalLots: 322
	AvailableLots: 192
-----------------------------------
CarParkID: ECML
Address: BLK 34 TO 36, 37A TO 37C EUNOS CRESCENT/ EUNOS ROAD 2
CarParkType: SURFACE CAR PARK
Latitude: 1.321248
Longitude: 103.901537
LotType:  C
	TotalLots: 6
	AvailableLots: 1
-----------------------------------
CarParkID: BE40
Address: BLK 268A BISHAN STREET 24
CarParkType: MULTI-STOREY CAR PARK
Latitude: 1.357311
Longitude: 103.842640
LotType:  C
	TotalLots: 339
	AvailableLots: 201
-----------------------------------
CarParkID: BE12
Address: BLK 187-197 BISHAN STREET 13
CarParkType: SURFACE CAR PARK
Latitude: 1.350013
Longitude: 103.850963
LotType:  C
	TotalLots: 459
	AvailableLots: 140
-----------------------------------
CarParkID: LT1
Address: BLK 110,113-116 LENGKONG TIGA
CarParkType: SURFACE CAR PARK
Latitude: 1.323317
Longitude: 103.911505
LotType:  C
	TotalLots: 260
	AvailableLots: 101
LotType:  H
	TotalLots: 50
	AvailableLots: 0
LotType:  Y
	TotalLots: 72
	AvailableLots: 61
-----------------------------------
CarParkID: TPMB
Address: BLK 156A LORONG 1 TOA PAYOH
CarParkType: MULTI-STOREY CAR PARK
Latitude: 1.333054
Longitude: 103.845240
LotType:  C
	TotalLots: 601
	AvailableLots: 406
-----------------------------------
CarParkID: SE17
Address: BLK 321/329 SERANGOON AVENUE 3
CarParkType: SURFACE CAR PARK
Latitude: 1.351714
Longitude: 103.867709
LotType:  C
	TotalLots: 465
	AvailableLots: 130
-----------------------------------
CarParkID: 62
Address: Lot One
CarParkType: MULTI-STOREY CAR PARK
Latitude: 1.385126
Longitude: 103.744940
LotType:  C
	TotalLots: 
	AvailableLots: 294
-----------------------------------
CarParkID: A49
Address: BLK 555/559 ANG MO KIO STREET 54
CarParkType: 
Latitude: 1.371330
Longitude: 103.857797
LotType:  C
	TotalLots: 180
	AvailableLots: 66
-----------------------------------
CarParkID: A85
Address: BLK 340 ANG MO KIO STREET 32
CarParkType: 
Latitude: 1.365107
Longitude: 103.849709
LotType:  C
	TotalLots: 93
	AvailableLots: 22
-----------------------------------
CarParkID: W66
Address: BLK 709A WOODLANDS DRIVE 70
CarParkType: MULTI-STOREY CAR PARK
Latitude: 1.441095
Longitude: 103.797997
LotType:  C
	TotalLots: 340
	AvailableLots: 131
-----------------------------------
CarParkID: PL63
Address: BLK 677 PUNGGOL DRIVE
CarParkType: MULTI-STOREY CAR PARK
Latitude: 1.405739
Longitude: 103.909579
-----------------------------------
CarParkID: CK3
Address: BLK 118/124 TECK WHYE LANE
CarParkType: SURFACE CAR PARK
Latitude: 1.378605
Longitude: 103.750062
LotType:  C
	TotalLots: 282
	AvailableLots: 20
-----------------------------------
CarParkID: J84M
Address: BLK 854A JURONG WEST STREET 81
CarParkType: MULTI-STOREY CAR PARK
Latitude: 1.347724
Longitude: 103.696478
LotType:  C
	TotalLots: 285
	AvailableLots: 117
-----------------------------------
CarParkID: TM22
Address: BLK 351A TAMPINES STREET 33
CarParkType: MULTI-STOREY CAR PARK
Latitude: 1.352264
Longitude: 103.962829
LotType:  C
	TotalLots: 345
	AvailableLots: 125
-----------------------------------
CarParkID: PL70
Address: BLK 226 SUMANG LANE
CarParkType: MULTI-STOREY CAR PARK
Latitude: 1.403000
Longitude: 103.893240
LotType:  C
	TotalLots: 773
	AvailableLots: 263
-----------------------------------
CarParkID: B20
Address: BLK 67/73 BEDOK SOUTH ROAD
CarParkType: 
Latitude: 1.319800
Longitude: 103.943420
LotType:  C
	TotalLots: 385
	AvailableLots: 123
-----------------------------------
CarParkID: C25
Address: BLK 101-104 CLEMENTI STREET 14
CarParkType: 
Latitude: 1.322351
Longitude: 103.768989
LotType:  Y
	TotalLots: 12
	AvailableLots: 8
LotType:  C
	TotalLots: 154
	AvailableLots: 32
LotType:  H
	TotalLots: 50
	AvailableLots: 0
-----------------------------------
CarParkID: SE39
Address: BLK 542A SERANGOON NORTH AVENUE 4
CarParkType: MULTI-STOREY CAR PARK
Latitude: 1.373503
Longitude: 103.871703
LotType:  C
	TotalLots: 198
	AvailableLots: 50
-----------------------------------
CarParkID: HG45
Address: BLK 685-691 HOUGANG STREET 61
CarParkType: SURFACE CAR PARK
Latitude: 1.375903
Longitude: 103.886130
LotType:  C
	TotalLots: 458
	AvailableLots: 161
-----------------------------------
CarParkID: B59
