
 ┌───────────────────────────────────────────────────┐ 
 │                  SweetSpot v1.0                   │ 
 │                   Fiber v2.52.6                   │ 
 │               http://127.0.0.1:8000               │ 
 │       (bound on host 0.0.0.0 and port 8000)       │ 
 │                                                   │ 
 │ Handlers ............. 6  Processes ........... 1 │ 
 │ Prefork ....... Disabled  PID ........... 3702383 │ 
 └───────────────────────────────────────────────────┘ 

CarParkID: CKM5
Address: BLK 450A CHOA CHU KANG AVENUE 4
CarParkType: MULTI-STOREY CAR PARK
Latitude: 1.379310
Longitude: 103.735695
AvailableLots: 2354
LotType: C
TotalLots: 2754
-----------------------------------
CarParkID: SK44
Address: BLK 308 ANCHORVALE ROAD
CarParkType: MULTI-STOREY CAR PARK
Latitude: 1.389494
Longitude: 103.886380
AvailableLots: 0
LotType: H
TotalLots: 10
-----------------------------------
CarParkID: JM14
Address: BLK 635A JURONG WEST STREET 65
CarParkType: MULTI-STOREY CAR PARK
Latitude: 1.342400
Longitude: 103.698769
AvailableLots: 255
LotType: C
TotalLots: 493
-----------------------------------
CarParkID: U21
Address: BLK 301/309 BUKIT BATOK STREET 31
CarParkType: SURFACE CAR PARK
Latitude: 1.357355
Longitude: 103.748583
AvailableLots: 114
LotType: C
TotalLots: 313
-----------------------------------
CarParkID: PM41
Address: BLK 747A PASIR RIS STREET 71
CarParkType: MULTI-STOREY CAR PARK
Latitude: 1.378837
Longitude: 103.934087
AvailableLots: 83
LotType: C
TotalLots: 359
-----------------------------------
CarParkID: PL29
Address: BLK 633 PUNGGOL DRIVE
CarParkType: BASEMENT CAR PARK
Latitude: 1.400538
Longitude: 103.913266
AvailableLots: 100
LotType: C
TotalLots: 298
-----------------------------------
CarParkID: W80
Address: BLK 775A WOODLANDS CRESCENT
CarParkType: MULTI-STOREY CAR PARK
Latitude: 1.448166
Longitude: 103.800342
AvailableLots: 192
LotType: C
TotalLots: 322
-----------------------------------
CarParkID: KE3M
Address: BLK 145A BEDOK RESERVOIR ROAD
CarParkType: MULTI-STOREY CAR PARK
Latitude: 1.334020
Longitude: 103.911410
AvailableLots: 167
LotType: C
TotalLots: 255
-----------------------------------
CarParkID: T16
Address: BLK 202/205 TAMPINES STREET 21
CarParkType: SURFACE CAR PARK
Latitude: 1.352549
Longitude: 103.952312
AvailableLots: 30
LotType: C
TotalLots: 109
-----------------------------------
CarParkID: Y46
Address: BLK 349-359 YISHUN RING ROAD
CarParkType: SURFACE CAR PARK
Latitude: 1.426085
Longitude: 103.845763
AvailableLots: 193
LotType: C
TotalLots: 593
-----------------------------------
CarParkID: TBM3
Address: BLK 78A TELOK BLANGAH STREET 32
CarParkType: MULTI-STOREY CAR PARK
Latitude: 1.273374
Longitude: 103.808973
AvailableLots: 318
LotType: C
TotalLots: 385
-----------------------------------
CarParkID: W517
Address: BLK 517A WOODLANDS DRIVE 14
CarParkType: MULTI-STOREY CAR PARK
Latitude: 1.434144
Longitude: 103.791519
AvailableLots: 663
LotType: C
TotalLots: 1158
-----------------------------------
CarParkID: H6
Address: BLK 77/79 GANGES AVENUE
CarParkType: 
Latitude: 1.291370
Longitude: 103.828984
AvailableLots: 95
LotType: C
TotalLots: 212
-----------------------------------
CarParkID: TM28
Address: BLK 498K TAMPINES STREET 45
CarParkType: MULTI-STOREY CAR PARK
Latitude: 1.362833
Longitude: 103.956879
AvailableLots: 84
LotType: C
TotalLots: 289
-----------------------------------
CarParkID: BJ13
Address: BLK 270-277 BANGKIT ROAD
CarParkType: SURFACE CAR PARK
Latitude: 1.377003
Longitude: 103.774778
AvailableLots: 61
LotType: C
TotalLots: 352
-----------------------------------
CarParkID: JM2
Address: BLK 682 JURONG WEST CENTRAL 1
CarParkType: MULTI-STOREY CAR PARK
Latitude: 1.343935
Longitude: 103.704963
AvailableLots: 265
LotType: C
TotalLots: 300
-----------------------------------
CarParkID: A99
Address: BLK 181 ANG MO KIO AVENUE 5
CarParkType: SURFACE CAR PARK
Latitude: 1.376985
Longitude: 103.837214
AvailableLots: 
LotType: 
TotalLots: 
-----------------------------------
CarParkID: 23
Address: ION Orchard
CarParkType: MULTI-STOREY CAR PARK
Latitude: 1.304030
Longitude: 103.832060
AvailableLots: 477
LotType: C
TotalLots: 
-----------------------------------
CarParkID: CK13
Address: BLK 414-420 CHOA CHU KANG AVENUE 4
CarParkType: SURFACE CAR PARK
Latitude: 1.382916
Longitude: 103.742040
AvailableLots: 92
LotType: C
TotalLots: 326
-----------------------------------
CarParkID: J70
Address: BLK 835/838 JURONG WEST STREET 81
CarParkType: SURFACE CAR PARK
Latitude: 1.343686
Longitude: 103.693508
AvailableLots: 0
LotType: C
TotalLots: 147
-----------------------------------
CarParkID: PL46
Address: BLK 624 PUNGGOL CENTRAL
CarParkType: COVERED CAR PARK
Latitude: 1.400259
Longitude: 103.911630
AvailableLots: 87
LotType: C
TotalLots: 428
-----------------------------------
CarParkID: W90
Address: BLK 626A WOODLANDS DRIVE 52
CarParkType: MULTI-STOREY CAR PARK
Latitude: 1.434105
Longitude: 103.800114
AvailableLots: 309
LotType: C
TotalLots: 499
-----------------------------------
CarParkID: SE3
Address: BLK 109/112 SERANGOON NORTH AVENUE 1
CarParkType: SURFACE CAR PARK
Latitude: 1.369244
Longitude: 103.870922
AvailableLots: 
LotType: 
TotalLots: 
-----------------------------------
CarParkID: B74
Address: BLK 671A JALAN DAMAI
CarParkType: 
Latitude: 1.332847
Longitude: 103.909055
AvailableLots: 151
LotType: C
TotalLots: 365
-----------------------------------
CarParkID: BE20
Address: BLK 505 BISHAN STREET 11
CarParkType: MULTI-STOREY CAR PARK
Latitude: 1.348891
Longitude: 103.848664
AvailableLots: 
LotType: 
TotalLots: 
-----------------------------------
CarParkID: BBM9
Address: BLK 395A BUKIT BATOK WEST AVENUE 5
CarParkType: MULTI-STOREY CAR PARK
Latitude: 1.365830
Longitude: 103.751771
AvailableLots: 462
LotType: C
TotalLots: 1200
-----------------------------------
CarParkID: HG1E
Address: BLK 377 HOUGANG STREET 32
CarParkType: MULTI-STOREY CAR PARK
Latitude: 1.362651
Longitude: 103.894715
AvailableLots: 144
LotType: C
TotalLots: 306
-----------------------------------
CarParkID: BJ56
Address: BLK 629A SENJA ROAD
CarParkType: MULTI-STOREY CAR PARK
Latitude: 1.385891
Longitude: 103.758950
AvailableLots: 234
LotType: C
TotalLots: 554
-----------------------------------
CarParkID: KB12
Address: BLK 22/24 SERANGOON ROAD
CarParkType: SURFACE CAR PARK
Latitude: 1.319106
Longitude: 103.861586
AvailableLots: 90
LotType: C
TotalLots: 181
-----------------------------------
CarParkID: Q19
Address: BLK 151 MEI LING STREET
CarParkType: SURFACE CAR PARK
Latitude: 1.294700
Longitude: 103.803258
AvailableLots: 5
LotType: C
TotalLots: 20
-----------------------------------
CarParkID: PL16
Address: BLK 180 EDGEFIELD PLAINS
CarParkType: MULTI-STOREY CAR PARK
Latitude: 1.398608
Longitude: 103.909368
AvailableLots: 63
LotType: C
TotalLots: 153
-----------------------------------
CarParkID: TM18
Address: BLK 856A TAMPINES STREET 82
CarParkType: MULTI-STOREY CAR PARK
Latitude: 1.352397
Longitude: 103.938035
AvailableLots: 90
LotType: C
TotalLots: 312
-----------------------------------
CarParkID: Q77M
Address: BLK 18 HOLLAND DRIVE
CarParkType: MULTI-STOREY CAR PARK
Latitude: 1.311593
Longitude: 103.792015
AvailableLots: 272
LotType: C
TotalLots: 607
-----------------------------------
CarParkID: HG88
Address: BLK 699D HOUGANG STREET 52
CarParkType: MULTI-STOREY CAR PARK
Latitude: 1.376042
Longitude: 103.888589
AvailableLots: 387
LotType: C
TotalLots: 699
-----------------------------------
CarParkID: P3
Address: BLK 101 PUNGGOL FIELD
CarParkType: 
Latitude: 1.398457
Longitude: 103.905774
AvailableLots: 350
LotType: C
TotalLots: 658
-----------------------------------
CarParkID: CK78
Address: 817 KEAT HONG LINK
CarParkType: MULTI-STOREY CAR PARK
Latitude: 1.376987
Longitude: 103.749399
AvailableLots: 1247
LotType: C
TotalLots: 1712
-----------------------------------
CarParkID: B77
Address: BLK 765A BEDOK RESERVOIR VIEW
CarParkType: MULTI-STOREY CAR PARK
Latitude: 1.335690
Longitude: 103.936333
AvailableLots: 
LotType: 
TotalLots: 
-----------------------------------
CarParkID: M34
Address: BLK 81/82 MACPHERSON LANE
CarParkType: SURFACE CAR PARK
Latitude: 1.332507
Longitude: 103.885640
AvailableLots: 
LotType: 
TotalLots: 
-----------------------------------
CarParkID: AM19
Address: BLK 260 ANG MO KIO STREET 21
CarParkType: MULTI-STOREY CAR PARK
Latitude: 1.368886
Longitude: 103.834531
AvailableLots: 111
LotType: C
TotalLots: 300
-----------------------------------
CarParkID: HG63
Address: BLK 465A UPPER SERANGOON ROAD
CarParkType: MULTI-STOREY CAR PARK
Latitude: 1.372357
Longitude: 103.897364
AvailableLots: 
LotType: 
TotalLots: 
-----------------------------------
CarParkID: SB15
Address: BLK 358A ADMIRALTY DRIVE
CarParkType: MULTI-STOREY CAR PARK
Latitude: 1.448927
Longitude: 103.816693
AvailableLots: 1027
LotType: C
TotalLots: 1549
-----------------------------------
CarParkID: W87
Address: BLK 649A WOODLANDS RING ROAD
CarParkType: MULTI-STOREY CAR PARK
Latitude: 1.438539
Longitude: 103.800231
AvailableLots: 203
LotType: C
TotalLots: 401
-----------------------------------
CarParkID: B6T
Address: BLK 23 BEDOK SOUTH AVENUE 1
CarParkType: SURFACE CAR PARK
Latitude: 1.323716
Longitude: 103.932563
AvailableLots: 
LotType: 
TotalLots: 
-----------------------------------
CarParkID: TP8A
Address: BLK 91-92 LOR 3/4 TOA PAYOH LORONG 3 TOA PAYOH
CarParkType: SURFACE CAR PARK
Latitude: 1.337949
Longitude: 103.849414
AvailableLots: 
LotType: 
TotalLots: 
-----------------------------------
CarParkID: JM7
Address: BLK 669 JURONG WEST STREET 64
CarParkType: MULTI-STOREY CAR PARK
Latitude: 1.342485
Longitude: 103.703006
AvailableLots: 689
LotType: C
TotalLots: 1103
-----------------------------------
CarParkID: U29
Address: BLK 376 BUKIT BATOK MSCP
CarParkType: MULTI-STOREY CAR PARK
Latitude: 1.358592
Longitude: 103.749298
AvailableLots: 308
LotType: C
TotalLots: 338
-----------------------------------
CarParkID: JS1L
Address: BLK 692A JURONG WEST CENTRAL 3
CarParkType: SURFACE CAR PARK
Latitude: 1.341071
Longitude: 103.705922
AvailableLots: 9
LotType: C
TotalLots: 10
-----------------------------------
CarParkID: A87
Address: BLK 462/463 ANG MO KIO STREET 44
CarParkType: 
Latitude: 1.366826
Longitude: 103.857884
AvailableLots: 57
LotType: C
TotalLots: 113
-----------------------------------
CarParkID: RCM
Address: BLK 638 VEERASAMY ROAD
CarParkType: MULTI-STOREY CAR PARK
Latitude: 1.307210
Longitude: 103.855352
AvailableLots: 60
LotType: C
TotalLots: 151
-----------------------------------
CarParkID: NT13
Address: BLK 660 TAMPINES STREET 64
CarParkType: MULTI-STOREY CAR PARK
Latitude: 1.367543
Longitude: 103.934101
AvailableLots: 148
LotType: C
TotalLots: 260
-----------------------------------
CarParkID: B24A
Address: BLK 84 BEDOK NORTH STREET 4
CarParkType: SURFACE CAR PARK
Latitude: 1.331262
Longitude: 103.939616
AvailableLots: 
LotType: 
TotalLots: 
-----------------------------------
CarParkID: FR2S
Address: BLK 2/3/4 QUEEN'S ROAD
CarParkType: SURFACE CAR PARK
Latitude: 1.317920
Longitude: 103.807184
AvailableLots: 
LotType: 
TotalLots: 
-----------------------------------
CarParkID: MP6S
Address: BLK 77 MARINE DRIVE
CarParkType: SURFACE CAR PARK
Latitude: 1.302164
Longitude: 103.908403
AvailableLots: 
LotType: 
TotalLots: 
-----------------------------------
CarParkID: B41
Address: BLK 510 BEDOK NORTH STREET 3
CarParkType: 
Latitude: 1.332555
Longitude: 103.931493
AvailableLots: 23
LotType: C
TotalLots: 26
-----------------------------------
CarParkID: W56L
Address: 
CarParkType: 
Latitude: 0.000000
Longitude: 0.000000
AvailableLots: 9
LotType: C
TotalLots: 10
-----------------------------------
CarParkID: T47
Address: BLK 857/864 TAMPINES STREET 83/AVENUE 5
CarParkType: SURFACE CAR PARK
Latitude: 1.354912
Longitude: 103.936899
AvailableLots: 161
LotType: C
TotalLots: 669
-----------------------------------
CarParkID: SI14
Address: BLK 142/145 SIMEI STREET 2
CarParkType: SURFACE CAR PARK
Latitude: 1.345275
Longitude: 103.954618
AvailableLots: 
LotType: 
TotalLots: 
-----------------------------------
CarParkID: AR5M
Address: BLK 19A DOVER CRESCENT
CarParkType: MULTI-STOREY CAR PARK
Latitude: 1.307343
Longitude: 103.784463
AvailableLots: 213
LotType: C
TotalLots: 419
-----------------------------------
CarParkID: SI7
Address: BLK 132 - 139 SIMEI STREET 1
CarParkType: SURFACE CAR PARK
Latitude: 1.347429
Longitude: 103.956292
AvailableLots: 170
LotType: C
TotalLots: 359
-----------------------------------
CarParkID: TP50
Address: BLK 1 TO 3 LORONG 7 TOA PAYOH
CarParkType: SURFACE CAR PARK
Latitude: 1.338878
Longitude: 103.854431
AvailableLots: 159
LotType: C
TotalLots: 296
-----------------------------------
CarParkID: PM24
Address: BLK 561A PASIR RIS STREET 51
CarParkType: MULTI-STOREY CAR PARK
Latitude: 1.367185
Longitude: 103.951315
AvailableLots: 181
LotType: C
TotalLots: 295
-----------------------------------
CarParkID: BJ3
Address: BLK 101/129 GANGSA ROAD/PENDING ROAD
CarParkType: 
Latitude: 1.377310
Longitude: 103.769377
AvailableLots: 266
LotType: C
TotalLots: 1054
-----------------------------------
CarParkID: Y36
Address: BLK 642/643 YISHUN STREET 61
CarParkType: SURFACE CAR PARK
Latitude: 1.421527
Longitude: 103.837655
AvailableLots: 66
LotType: C
TotalLots: 287
-----------------------------------
CarParkID: KB18
Address: BLK 45-48 BENDEMEER ROAD
CarParkType: SURFACE CAR PARK
Latitude: 1.322703
Longitude: 103.865733
AvailableLots: 0
LotType: C
TotalLots: 36
-----------------------------------
CarParkID: W89
Address: BLK 661A WOODLANDS RING ROAD
CarParkType: MULTI-STOREY CAR PARK
Latitude: 1.435842
Longitude: 103.798554
AvailableLots: 281
LotType: C
TotalLots: 524
-----------------------------------
CarParkID: PL72
Address: BLK 222 SUMANG LANE SUMANG LANE
CarParkType: MULTI-STOREY CAR PARK
Latitude: 1.401100
Longitude: 103.894278
AvailableLots: 
LotType: 
TotalLots: 
-----------------------------------
CarParkID: PR3
Address: BLK 531/536 PASIR RIS DRIVE 1/PASIR RIS CENTRAL
CarParkType: SURFACE CAR PARK
Latitude: 1.371063
Longitude: 103.950715
AvailableLots: 171
LotType: C
TotalLots: 368
-----------------------------------
CarParkID: SK51
Address: BLK 325 SENGKANG EAST WAY
CarParkType: MULTI-STOREY CAR PARK
Latitude: 1.393612
Longitude: 103.891476
AvailableLots: 0
LotType: H
TotalLots: 10
-----------------------------------
CarParkID: PM29
Address: BLK 601A ELIAS ROAD
CarParkType: MULTI-STOREY CAR PARK
Latitude: 1.377333
Longitude: 103.943373
AvailableLots: 185
LotType: C
TotalLots: 412
-----------------------------------
CarParkID: TP62
Address: BLK 199 TO 201 TOA PAYOH NORTH
CarParkType: SURFACE CAR PARK
Latitude: 1.341419
Longitude: 103.850461
AvailableLots: 72
LotType: C
TotalLots: 162
-----------------------------------
CarParkID: BJ72
Address: BLK 638 SENJA CLOSE
CarParkType: MULTI-STOREY CAR PARK
Latitude: 1.388877
Longitude: 103.760872
AvailableLots: 55
LotType: C
TotalLots: 200
-----------------------------------
CarParkID: Y77L
Address: 
CarParkType: 
Latitude: 0.000000
Longitude: 0.000000
AvailableLots: 1
LotType: C
TotalLots: 2
-----------------------------------
CarParkID: CR30
Address: BLK 639/640 ROWELL COURT
CarParkType: SURFACE CAR PARK
Latitude: 1.307600
Longitude: 103.854941
AvailableLots: 12
LotType: C
TotalLots: 54
-----------------------------------
CarParkID: PM11
Address: BLK 269A PASIR RIS STREET 21
CarParkType: MULTI-STOREY CAR PARK
Latitude: 1.364793
Longitude: 103.963457
AvailableLots: 71
LotType: C
TotalLots: 227
-----------------------------------
CarParkID: W61
Address: BLK 358A WOODLANDS AVENUE 5
CarParkType: MULTI-STOREY CAR PARK
Latitude: 1.433216
Longitude: 103.783947
AvailableLots: 500
LotType: C
TotalLots: 1209
-----------------------------------
CarParkID: BRM2
Address: BLK 32A JALAN BAHAGIA
CarParkType: MULTI-STOREY CAR PARK
Latitude: 1.325973
Longitude: 103.857684
AvailableLots: 
LotType: 
TotalLots: 
-----------------------------------
CarParkID: PL76
Address: BLK 326 SUMANG WALK SUMANG WALK
CarParkType: MULTI-STOREY CAR PARK
Latitude: 1.413300
Longitude: 103.899328
AvailableLots: 
LotType: 
TotalLots: 
-----------------------------------
CarParkID: SK49
Address: BLK 319 ANCHORVALE DRIVE
CarParkType: MULTI-STOREY CAR PARK
Latitude: 1.390512
Longitude: 103.890455
AvailableLots: 99
LotType: Y
TotalLots: 120
-----------------------------------
CarParkID: JM24
Address: BLK 655 JURONG WEST STREET 61
CarParkType: MULTI-STOREY CAR PARK
Latitude: 1.335287
Longitude: 103.698059
AvailableLots: 546
LotType: C
TotalLots: 786
-----------------------------------
CarParkID: JM3
Address: BLK 679 JURONG WEST CENTRAL 1
CarParkType: MULTI-STOREY CAR PARK
Latitude: 1.344588
Longitude: 103.706067
AvailableLots: 330
LotType: C
TotalLots: 547
-----------------------------------
CarParkID: KE3
Address: BLK 127/135, 141/151 BEDOK RESERVOIR ROAD
CarParkType: SURFACE CAR PARK
Latitude: 1.333909
Longitude: 103.911959
AvailableLots: 474
LotType: C
TotalLots: 1018
-----------------------------------
CarParkID: CK59
Address: BLK 297A CHOA CHU KANG AVENUE 2
CarParkType: MULTI-STOREY CAR PARK
Latitude: 1.376811
Longitude: 103.742038
AvailableLots: 228
LotType: C
TotalLots: 458
-----------------------------------
CarParkID: SE26
Address: BLK 409/414 SERANGOON CENTRAL/AVENUE 1
CarParkType: SURFACE CAR PARK
Latitude: 1.348961
Longitude: 103.874139
AvailableLots: 70
LotType: C
TotalLots: 180
-----------------------------------
CarParkID: A40
Address: BLK 471/476 ANG MO KIO STREET 44
CarParkType: 
Latitude: 1.362356
Longitude: 103.856982
AvailableLots: 292
LotType: C
TotalLots: 520
-----------------------------------
CarParkID: B30
Address: BLK 119/123 BEDOK NORTH STREET 2
CarParkType: 
Latitude: 1.329943
Longitude: 103.938753
AvailableLots: 132
LotType: C
TotalLots: 353
-----------------------------------
CarParkID: B33
Address: BLK 131/133 BEDOK NORTH AVENUE 3
CarParkType: 
Latitude: 1.327241
Longitude: 103.935800
AvailableLots: 63
LotType: C
TotalLots: 129
-----------------------------------
CarParkID: KB4
Address: BLK 72/93/97 GEYLANG BAHRU
CarParkType: SURFACE CAR PARK
Latitude: 1.323129
Longitude: 103.870683
AvailableLots: 229
LotType: C
TotalLots: 408
-----------------------------------
CarParkID: J92
Address: BLK 285E TOH GUAN ROAD
CarParkType: MULTI-STOREY CAR PARK
Latitude: 1.337557
Longitude: 103.746856
AvailableLots: 238
LotType: C
TotalLots: 447
-----------------------------------
CarParkID: TP52
Address: BLK 210 TO 215 LORONG 8 TOA PAYOH
CarParkType: SURFACE CAR PARK
Latitude: 1.341408
Longitude: 103.854539
AvailableLots: 242
LotType: C
TotalLots: 456
-----------------------------------
CarParkID: W536
Address: BLK 536A WOODLANDS DRIVE 14
CarParkType: MULTI-STOREY CAR PARK
Latitude: 1.431138
Longitude: 103.791523
AvailableLots: 141
LotType: C
TotalLots: 326
-----------------------------------
CarParkID: A38
Address: BLK 407/410/421 ANG MO KIO AVENUE 10
CarParkType: 
Latitude: 1.363964
Longitude: 103.854588
AvailableLots: 458
LotType: C
TotalLots: 938
-----------------------------------
CarParkID: T56
Address: BLK 827A TAMPINES STREET 81
CarParkType: SURFACE CAR PARK
Latitude: 1.350085
Longitude: 103.932876
AvailableLots: 
LotType: 
TotalLots: 
-----------------------------------
CarParkID: AM81
Address: BLK 132A ANG MO KIO STREET 12
CarParkType: MULTI-STOREY CAR PARK
Latitude: 1.371639
Longitude: 103.841947
AvailableLots: 94
LotType: C
TotalLots: 215
-----------------------------------
CarParkID: AR1M
Address: BLK 2A DOVER ROAD
CarParkType: MULTI-STOREY CAR PARK
Latitude: 1.302848
Longitude: 103.783666
AvailableLots: 109
LotType: C
TotalLots: 196
-----------------------------------
CarParkID: K7
Address: BLK 51 OLD AIRPORT ROAD
CarParkType: 
Latitude: 1.308895
Longitude: 103.886017
AvailableLots: 21
LotType: C
TotalLots: 159
-----------------------------------
CarParkID: SIM1
Address: BLK 115 SIMEI STREET 1
CarParkType: MULTI-STOREY CAR PARK
Latitude: 1.343164
Longitude: 103.950453
AvailableLots: 212
LotType: C
TotalLots: 317
-----------------------------------
CarParkID: W76
Address: BLK 748A WOODLANDS CIRCLE
CarParkType: MULTI-STOREY CAR PARK
Latitude: 1.444917
Longitude: 103.795101
AvailableLots: 411
LotType: C
TotalLots: 480
-----------------------------------
CarParkID: HG51
Address: BLK 546-555 HOUGANG STREET 51
CarParkType: SURFACE CAR PARK
Latitude: 1.378650
Longitude: 103.890113
AvailableLots: 23
LotType: C
TotalLots: 204
-----------------------------------
CarParkID: HG45
Address: BLK 685-691 HOUGANG STREET 61
CarParkType: SURFACE CAR PARK
Latitude: 1.375903
Longitude: 103.886130
AvailableLots: 175
LotType: C
TotalLots: 458
-----------------------------------
CarParkID: TM19
Address: BLK 364A TAMPINES STREET 34
CarParkType: MULTI-STOREY CAR PARK
Latitude: 1.357342
Longitude: 103.959345
AvailableLots: 89
LotType: C
TotalLots: 100
-----------------------------------
CarParkID: TPME
Address: BLK 93A LORONG 4 TOA PAYOH
CarParkType: MULTI-STOREY CAR PARK
Latitude: 1.338445
Longitude: 103.849846
AvailableLots: 133
LotType: C
TotalLots: 172
-----------------------------------
CarParkID: SB33
Address: BLK 592 MONTREAL LINK
CarParkType: MULTI-STOREY CAR PARK
Latitude: 1.451213
Longitude: 103.827433
AvailableLots: 217
LotType: C
TotalLots: 388
-----------------------------------
CarParkID: PL26
Address: BLK 650 PUNGGOL CENTRAL
CarParkType: MULTI-STOREY CAR PARK
Latitude: 1.397283
Longitude: 103.915303
AvailableLots: 216
LotType: C
TotalLots: 375
-----------------------------------
CarParkID: W691
Address: BLK 691 WOODLANDS DRIVE 73
CarParkType: MULTI-STOREY CAR PARK
Latitude: 1.440609
Longitude: 103.806211
AvailableLots: 172
LotType: C
TotalLots: 333
-----------------------------------
CarParkID: W29
Address: BLK 306/306A WOODLANDS STREET 31
CarParkType: SURFACE CAR PARK
Latitude: 1.430094
Longitude: 103.774766
AvailableLots: 
LotType: 
TotalLots: 
-----------------------------------
CarParkID: S0049
Address: Serangoon Rd-Lavender St Off Street
CarParkType: SURFACE CAR PARK
Latitude: 1.314887
Longitude: 103.858588
AvailableLots: 20
LotType: Y
TotalLots: 
-----------------------------------
CarParkID: TWM3
Address: BLK 160A JALAN TECK WHYE
CarParkType: MULTI-STOREY CAR PARK
Latitude: 1.380388
Longitude: 103.757316
AvailableLots: 799
LotType: C
TotalLots: 1000
-----------------------------------
CarParkID: SE4
Address: BLK 113-125, 142-148 SERANGOON NORTH AVENUE 1
CarParkType: SURFACE CAR PARK
Latitude: 1.368739
Longitude: 103.872296
AvailableLots: 
LotType: 
TotalLots: 
-----------------------------------
CarParkID: P0111
Address: PAHANG STREET OFF STREET
CarParkType: SURFACE CAR PARK
Latitude: 1.301760
Longitude: 103.860866
AvailableLots: 26
LotType: C
TotalLots: 
-----------------------------------
CarParkID: BE37
Address: BLK 282 BISHAN STREET 22
CarParkType: MULTI-STOREY CAR PARK
Latitude: 1.358007
Longitude: 103.844421
AvailableLots: 249
LotType: C
TotalLots: 390
-----------------------------------
CarParkID: PL34
Address: BLK 603 PUNGGOL ROAD
CarParkType: MULTI-STOREY CAR PARK
Latitude: 1.403862
Longitude: 103.907982
AvailableLots: 66
LotType: C
TotalLots: 80
-----------------------------------
CarParkID: SIM5
Address: BLK 256A SIMEI STREET 1
CarParkType: MULTI-STOREY CAR PARK
Latitude: 1.342527
Longitude: 103.952280
AvailableLots: 144
LotType: C
TotalLots: 235
-----------------------------------
CarParkID: KUM2
Address: BLK 357 UBI ROAD 3
CarParkType: MULTI-STOREY CAR PARK
Latitude: 1.329037
Longitude: 103.898748
AvailableLots: 162
LotType: C
TotalLots: 350
-----------------------------------
CarParkID: BJ25
Address: BLK 453A FAJAR ROAD
CarParkType: MULTI-STOREY CAR PARK
Latitude: 1.384898
Longitude: 103.771725
AvailableLots: 123
LotType: C
TotalLots: 264
-----------------------------------
CarParkID: SE12
Address: BLK 211-222 SERANGOON AVENUE 4
CarParkType: SURFACE CAR PARK
Latitude: 1.357843
Longitude: 103.873089
AvailableLots: 317
LotType: C
TotalLots: 0
-----------------------------------
CarParkID: S114
Address: BLK 460 SENGKANG WEST WAY
CarParkType: MULTI-STOREY CAR PARK
Latitude: 1.394208
Longitude: 103.869623
AvailableLots: 98
LotType: C
TotalLots: 336
-----------------------------------
CarParkID: L0117
Address: LORONG 25-25A GEYLANG OFF STREET
CarParkType: SURFACE CAR PARK
Latitude: 1.315411
Longitude: 103.882829
AvailableLots: 87
LotType: C
TotalLots: 
-----------------------------------
CarParkID: SLS
Address: BLK 4 SAGO LANE CAR PARK
CarParkType: SURFACE CAR PARK
Latitude: 1.281675
Longitude: 103.842977
AvailableLots: 38
LotType: C
TotalLots: 79
-----------------------------------
CarParkID: SK77
Address: BLK 410 FERNVALE ROAD
CarParkType: MULTI-STOREY CAR PARK
Latitude: 1.390315
Longitude: 103.876532
AvailableLots: 90
LotType: C
TotalLots: 412
-----------------------------------
CarParkID: PR7
Address: BLK 446/455 PASIR RIS DRIVE 6
CarParkType: SURFACE CAR PARK
Latitude: 1.371009
Longitude: 103.957685
AvailableLots: 13
LotType: C
TotalLots: 218
-----------------------------------
CarParkID: RC1
Address: BLK 101/102 JALAN RAJAH
CarParkType: SURFACE CAR PARK
Latitude: 1.328546
Longitude: 103.851553
AvailableLots: 57
LotType: C
TotalLots: 164
-----------------------------------
CarParkID: T77
Address: BLK 472/484 TAMPINES STREET 43/44
CarParkType: SURFACE CAR PARK
Latitude: 1.361677
Longitude: 103.952775
AvailableLots: 15
LotType: C
TotalLots: 24
-----------------------------------
CarParkID: GMLM
Address: BLK 24 GHIM MOH LINK
CarParkType: MULTI-STOREY CAR PARK
Latitude: 1.308728
Longitude: 103.785820
AvailableLots: 1347
LotType: C
TotalLots: 1530
-----------------------------------
CarParkID: GM2A
Address: BLK 8A GHIM MOH ROAD
CarParkType: MULTI-STOREY CAR PARK
Latitude: 1.310870
Longitude: 103.787264
AvailableLots: 46
LotType: C
TotalLots: 146
-----------------------------------
CarParkID: U63
Address: BLK 377A BUKIT BATOK STREET 31
CarParkType: MULTI-STOREY CAR PARK
Latitude: 1.359284
Longitude: 103.749844
AvailableLots: 22
LotType: C
TotalLots: 83
-----------------------------------
CarParkID: TE25
Address: BLK 17/31/141/150 KAMPONG BAHRU ROAD
CarParkType: SURFACE CAR PARK
Latitude: 1.277371
Longitude: 103.830787
AvailableLots: 135
LotType: C
TotalLots: 298
-----------------------------------
CarParkID: CK5
Address: BLK 139 & 140 TECK WHYE LANE/AVENUE
CarParkType: SURFACE CAR PARK
Latitude: 1.380179
Longitude: 103.752720
AvailableLots: 
LotType: 
TotalLots: 
-----------------------------------
CarParkID: C34
Address: BLK 702/703 WEST COAST ROAD
CarParkType: 
Latitude: 1.307010
Longitude: 103.760936
AvailableLots: 36
LotType: C
TotalLots: 147
-----------------------------------
CarParkID: BJ48
Address: BLK 651A SENJA LINK
CarParkType: MULTI-STOREY CAR PARK
Latitude: 1.387185
Longitude: 103.764603
AvailableLots: 279
LotType: C
TotalLots: 672
-----------------------------------
CarParkID: PM40
Address: BLK 744A PASIR RIS STREET 71
CarParkType: MULTI-STOREY CAR PARK
Latitude: 1.377947
Longitude: 103.935383
AvailableLots: 58
LotType: C
TotalLots: 267
-----------------------------------
CarParkID: HG99
Address: BLK 174A-174D HOUGANG AVENUE 1
CarParkType: SURFACE CAR PARK
Latitude: 1.349434
Longitude: 103.889048
AvailableLots: 60
LotType: C
TotalLots: 162
-----------------------------------
CarParkID: RC3
Address: BLK 105/108 JALAN RAJAH
CarParkType: SURFACE CAR PARK
Latitude: 1.328285
Longitude: 103.854564
AvailableLots: 12
LotType: C
TotalLots: 43
-----------------------------------
CarParkID: PM15
Address: BLK 158A PASIR RIS STREET 13
CarParkType: MULTI-STOREY CAR PARK
Latitude: 1.364159
Longitude: 103.961677
AvailableLots: 994
LotType: C
TotalLots: 1000
-----------------------------------
CarParkID: GE1E
Address: BLK 109-110 ALJUNIED CRESCENT
CarParkType: SURFACE CAR PARK
Latitude: 1.319721
Longitude: 103.884428
AvailableLots: 
LotType: 
TotalLots: 
-----------------------------------
CarParkID: 7
Address: Orchard Point
CarParkType: MULTI-STOREY CAR PARK
Latitude: 1.301350
Longitude: 103.840610
AvailableLots: 135
LotType: C
TotalLots: 
-----------------------------------
CarParkID: J85M
Address: BLK 859A JURONG WEST STREET 81
CarParkType: MULTI-STOREY CAR PARK
Latitude: 1.349977
Longitude: 103.696235
AvailableLots: 34
LotType: C
TotalLots: 230
-----------------------------------
CarParkID: BKE4
Address: BLK 684/685 RACE COURSE ROAD
CarParkType: SURFACE CAR PARK
Latitude: 1.314450
Longitude: 103.856841
AvailableLots: 63
LotType: C
TotalLots: 72
-----------------------------------
CarParkID: TWM5
Address: BLK 153 JALAN TECK WHYE
CarParkType: MULTI-STOREY CAR PARK
Latitude: 1.379048
Longitude: 103.758621
AvailableLots: 
LotType: 
TotalLots: 
-----------------------------------
CarParkID: A88
Address: BLK 348 ANG MO KIO AVENUE 3
CarParkType: 
Latitude: 1.366281
Longitude: 103.847267
AvailableLots: 2
LotType: C
TotalLots: 43
-----------------------------------
CarParkID: BBM5
Address: BLK 290H BUKIT BATOK STREET 24
CarParkType: MULTI-STOREY CAR PARK
Latitude: 1.343242
Longitude: 103.757933
AvailableLots: 371
LotType: C
TotalLots: 951
-----------------------------------
CarParkID: J65
Address: BLK 933-953 JURONG WEST STREET 91
CarParkType: SURFACE CAR PARK
Latitude: 1.342770
Longitude: 103.689295
AvailableLots: 379
LotType: C
TotalLots: 1083
-----------------------------------
CarParkID: BR5
Address: BLK 74/75 WHAMPOA DRIVE
CarParkType: 
Latitude: 1.324909
Longitude: 103.858191
AvailableLots: 55
LotType: C
TotalLots: 152
-----------------------------------
CarParkID: C20
Address: BLK 449-451 CLEMENTI AVENUE 3
CarParkType: 
Latitude: 1.313348
Longitude: 103.765262
AvailableLots: 160
LotType: C
TotalLots: 176
-----------------------------------
CarParkID: SH1
Address: BLK 301-313 SHUNFU ROAD
CarParkType: SURFACE CAR PARK
Latitude: 1.350744
Longitude: 103.838297
AvailableLots: 263
LotType: C
TotalLots: 607
-----------------------------------
CarParkID: K3T
Address: BLK 17 JALAN EMPAT
CarParkType: SURFACE CAR PARK
Latitude: 1.307580
Longitude: 103.883857
AvailableLots: 
LotType: 
TotalLots: 
-----------------------------------
CarParkID: U3
Address: BLK 133/139 BUKIT BATOK WEST AVENUE 6
CarParkType: 
Latitude: 1.351392
Longitude: 103.744352
AvailableLots: 54
LotType: C
TotalLots: 159
-----------------------------------
CarParkID: U31
Address: BLKS 526-534 BUKIT BATOK STREET 51
CarParkType: SURFACE CAR PARK
Latitude: 1.356913
Longitude: 103.751073
AvailableLots: 176
LotType: C
TotalLots: 348
-----------------------------------
CarParkID: W54
Address: BLK 824A WOODLANDS STREET 81
CarParkType: MULTI-STOREY CAR PARK
Latitude: 1.439418
Longitude: 103.789075
AvailableLots: 100
LotType: C
TotalLots: 267
-----------------------------------
CarParkID: PM18
Address: BLK 135A PASIR RIS STREET 11
CarParkType: MULTI-STOREY CAR PARK
Latitude: 1.364756
Longitude: 103.956879
AvailableLots: 77
LotType: C
TotalLots: 247
-----------------------------------
CarParkID: KJ1
Address: BLK 9/10 GLOUCESTER ROAD
CarParkType: SURFACE CAR PARK
Latitude: 1.313633
Longitude: 103.852041
AvailableLots: 97
LotType: C
TotalLots: 170
-----------------------------------
CarParkID: TJ18
Address: BLK 63-66 YUNG KUANG ROAD
CarParkType: SURFACE CAR PARK
Latitude: 1.331811
Longitude: 103.722631
AvailableLots: 
LotType: 
TotalLots: 
-----------------------------------
CarParkID: A7
Address: BLK 212/213 ANG MO KIO STREET 23
CarParkType: 
Latitude: 1.368392
Longitude: 103.841302
AvailableLots: 131
LotType: C
TotalLots: 238
-----------------------------------
CarParkID: H93L
Address: BLK 978C TO 981D, 982, 987A TO 988C BUANGKOK CRESCENT/GREEN
CarParkType: SURFACE CAR PARK
Latitude: 1.379800
Longitude: 103.880717
AvailableLots: 16
LotType: C
TotalLots: 38
-----------------------------------
CarParkID: STAM
Address: BLK 56A STRATHMORE AVENUE
CarParkType: MULTI-STOREY CAR PARK
Latitude: 1.292850
Longitude: 103.809940
AvailableLots: 92
LotType: C
TotalLots: 274
-----------------------------------
CarParkID: JM28
Address: BLK 990 JURONG WEST STREET 93
CarParkType: MULTI-STOREY CAR PARK
Latitude: 1.335327
Longitude: 103.695687
AvailableLots: 866
LotType: C
TotalLots: 1302
-----------------------------------
CarParkID: HCM
Address: BLK 104A HENDERSON CRESCENT
CarParkType: MULTI-STOREY CAR PARK
Latitude: 1.289045
Longitude: 103.821560
AvailableLots: 309
LotType: C
TotalLots: 386
-----------------------------------
CarParkID: TP68
Address: BLK 196 KIM KEAT AVENUE
CarParkType: SURFACE CAR PARK
Latitude: 1.331135
Longitude: 103.859293
AvailableLots: 11
LotType: C
TotalLots: 21
-----------------------------------
CarParkID: SK87
Address: BLK 448 SENGKANG WEST WAY
CarParkType: MULTI-STOREY CAR PARK
Latitude: 1.393151
Longitude: 103.873122
AvailableLots: 38
LotType: C
TotalLots: 115
-----------------------------------
CarParkID: CK31
Address: BLK 251A CHOA CHU KANG AVENUE 2
CarParkType: MULTI-STOREY CAR PARK
Latitude: 1.378750
Longitude: 103.744938
AvailableLots: 130
LotType: C
TotalLots: 290
-----------------------------------
CarParkID: PL62
Address: BLK 256 SUMANG WALK
CarParkType: MULTI-STOREY CAR PARK
Latitude: 1.405533
Longitude: 103.895528
AvailableLots: 177
LotType: C
TotalLots: 300
-----------------------------------
CarParkID: BRM7
Address: BLK 78A LORONG LIMAU
CarParkType: MULTI-STOREY CAR PARK
Latitude: 1.324373
Longitude: 103.855402
AvailableLots: 191
LotType: C
TotalLots: 360
-----------------------------------
CarParkID: 17
Address: Sentosa
CarParkType: MULTI-STOREY CAR PARK
Latitude: 1.250170
Longitude: 103.831260
AvailableLots: 1569
LotType: C
TotalLots: 
-----------------------------------
CarParkID: M3
Address: BLK 19 TO 21/23/24/30/32 BALAM ROAD
CarParkType: 
Latitude: 1.329868
Longitude: 103.886897
AvailableLots: 0
LotType: C
TotalLots: 126
-----------------------------------
CarParkID: W7
Address: BLK 17/21 MARSILING LANE
CarParkType: 
Latitude: 1.443136
Longitude: 103.777608
AvailableLots: 55
LotType: C
TotalLots: 128
-----------------------------------
CarParkID: S24L
Address: BLK 507A WELLINGTON CIRCLE
CarParkType: SURFACE CAR PARK
Latitude: 1.453160
Longitude: 103.823704
AvailableLots: 0
LotType: C
TotalLots: 2
-----------------------------------
CarParkID: GM2
Address: BLK 7/8/9 GHIM MOH ROAD
CarParkType: SURFACE CAR PARK
Latitude: 1.311601
Longitude: 103.788160
AvailableLots: 36
LotType: C
TotalLots: 62
-----------------------------------
CarParkID: TE22
Address: BLK 66/73 ENG WATT STREET
CarParkType: SURFACE CAR PARK
Latitude: 1.283430
Longitude: 103.832582
AvailableLots: 
LotType: 
TotalLots: 
-----------------------------------
CarParkID: H0024
Address: HONG LIM PARK OFF STREET
CarParkType: SURFACE CAR PARK
Latitude: 1.286401
Longitude: 103.847327
AvailableLots: 20
LotType: C
TotalLots: 
-----------------------------------
CarParkID: SK68
Address: BLK 275 COMPASSVALE LINK
CarParkType: BASEMENT CAR PARK
Latitude: 1.383065
Longitude: 103.894242
AvailableLots: 85
LotType: C
TotalLots: 233
-----------------------------------
CarParkID: W549
Address: BLK 549A WOODLANDS DRIVE 44
CarParkType: MULTI-STOREY CAR PARK
Latitude: 1.432300
Longitude: 103.794934
AvailableLots: 201
LotType: C
TotalLots: 429
-----------------------------------
CarParkID: HG1B
Address: BLK 475 UPPER SERANGOON CRESCENT
CarParkType: MULTI-STOREY CAR PARK
Latitude: 1.375720
Longitude: 103.900689
AvailableLots: 270
LotType: C
TotalLots: 659
-----------------------------------
CarParkID: J69M
Address: BLK 967 JURONG WEST 91 JURONG WEST STREET 93
CarParkType: MULTI-STOREY CAR PARK
Latitude: 1.341343
Longitude: 103.693346
AvailableLots: 
LotType: 
TotalLots: 
-----------------------------------
CarParkID: B67
Address: BLK 649A JALAN TENAGA
CarParkType: 
Latitude: 1.332016
Longitude: 103.906395
AvailableLots: 53
LotType: C
TotalLots: 334
-----------------------------------
CarParkID: TP40
Address: BLK 241-252 KIM KEAT LINK/AVENUE
CarParkType: SURFACE CAR PARK
Latitude: 1.331687
Longitude: 103.856714
AvailableLots: 84
LotType: C
TotalLots: 360
-----------------------------------
CarParkID: CVBK
Address: BLK 8C BOON KENG ROAD
CarParkType: MULTI-STOREY CAR PARK
Latitude: 1.316516
Longitude: 103.861027
AvailableLots: 89
LotType: C
TotalLots: 444
-----------------------------------
CarParkID: HE12
Address: BLK 78/81 REDHILL LANE
CarParkType: SURFACE CAR PARK
Latitude: 1.288209
Longitude: 103.818650
AvailableLots: 99
LotType: C
TotalLots: 105
-----------------------------------
CarParkID: A42
Address: BLK 461/465 ANG MO KIO STREET 44
CarParkType: 
Latitude: 1.366580
Longitude: 103.857364
AvailableLots: 56
LotType: C
TotalLots: 138
-----------------------------------
CarParkID: B16
Address: BLKS 59, 62-65 NEW UPPER CHANGI ROAD
CarParkType: 
Latitude: 1.323501
Longitude: 103.940559
AvailableLots: 186
LotType: C
TotalLots: 364
-----------------------------------
CarParkID: J8
Address: BLK 232/240 JURONG EAST STREET 21
CarParkType: 
Latitude: 1.340430
Longitude: 103.741574
AvailableLots: 147
LotType: C
TotalLots: 377
-----------------------------------
CarParkID: SK20
Address: BLK 191C RIVERVALE DRIVE
CarParkType: MULTI-STOREY CAR PARK
Latitude: 1.394094
Longitude: 103.903871
AvailableLots: 188
LotType: C
TotalLots: 283
-----------------------------------
CarParkID: T39
Address: BLK 921-941 TAMPINES STREET 91
CarParkType: SURFACE CAR PARK
Latitude: 1.345685
Longitude: 103.940489
AvailableLots: 264
LotType: C
TotalLots: 746
-----------------------------------
CarParkID: SB27
Address: BLK 492A ADMIRALTY LINK
CarParkType: MULTI-STOREY CAR PARK
Latitude: 1.456622
Longitude: 103.817396
AvailableLots: 283
LotType: C
TotalLots: 395
-----------------------------------
CarParkID: J0122
Address: JALAN KAYU OFF STREET
CarParkType: SURFACE CAR PARK
Latitude: 1.398870
Longitude: 103.872980
AvailableLots: 11
LotType: Y
TotalLots: 
-----------------------------------
CarParkID: P2
Address: BLK 199 PUNGGOL FIELD
CarParkType: 
Latitude: 1.400105
Longitude: 103.906029
AvailableLots: 99
LotType: C
TotalLots: 293
-----------------------------------
CarParkID: BA10
Address: BLK 213 BIDADARI PARK DRIVE
CarParkType: MULTI-STOREY CAR PARK
Latitude: 1.342939
Longitude: 103.872867
AvailableLots: 
LotType: 
TotalLots: 
-----------------------------------
CarParkID: A0046
Address: ALJUNIED ROAD OFF STREET
CarParkType: SURFACE CAR PARK
Latitude: 1.313893
Longitude: 103.881788
AvailableLots: 8
LotType: C
TotalLots: 
-----------------------------------
CarParkID: KB10
Address: BLK 30 BENDEMEER ROAD
CarParkType: SURFACE CAR PARK
Latitude: 1.318903
Longitude: 103.863592
AvailableLots: 99
LotType: C
TotalLots: 164
-----------------------------------
CarParkID: CK24
Address: BLK 350-351 CHOA CHU KANG CENTRAL
CarParkType: SURFACE CAR PARK
Latitude: 1.383325
Longitude: 103.743310
AvailableLots: 0
LotType: C
TotalLots: 30
-----------------------------------
CarParkID: U15
Address: BLK 231/237 BUKIT BATOK EAST AVENUE 5
CarParkType: SURFACE CAR PARK
Latitude: 1.348883
Longitude: 103.755436
AvailableLots: 140
LotType: C
TotalLots: 419
-----------------------------------
CarParkID: W4M
Address: BLK 7A MARSILING DRIVE
CarParkType: MULTI-STOREY CAR PARK
Latitude: 1.441558
Longitude: 103.775983
AvailableLots: 186
LotType: C
TotalLots: 355
-----------------------------------
CarParkID: UBM2
Address: BLK 8 UPPER BOON KENG ROAD
CarParkType: MULTI-STOREY CAR PARK
Latitude: 1.313108
Longitude: 103.870389
AvailableLots: 286
LotType: C
TotalLots: 485
-----------------------------------
CarParkID: PL71
Address: BLK 682 EDGEDALE PLAINS EDGEDALE PLAINS
CarParkType: MULTI-STOREY CAR PARK
Latitude: 1.404002
Longitude: 103.915771
AvailableLots: 263
LotType: C
TotalLots: 732
-----------------------------------
CarParkID: SE9
Address: BLK 135/141 SERANGOON NORTH AVENUE 2
CarParkType: SURFACE CAR PARK
Latitude: 1.368417
Longitude: 103.874460
AvailableLots: 255
LotType: C
TotalLots: 470
-----------------------------------
CarParkID: TPM5
Address: BLK 84C LORONG 2 TOA PAYOH
CarParkType: MULTI-STOREY CAR PARK
Latitude: 1.335818
Longitude: 103.847340
AvailableLots: 192
LotType: C
TotalLots: 342
-----------------------------------
CarParkID: BM36
Address: JALAN BUKIT MERAH
CarParkType: SURFACE CAR PARK
Latitude: 1.282805
Longitude: 103.817858
AvailableLots: 
LotType: 
TotalLots: 
-----------------------------------
CarParkID: S100
Address: BLK 472 FERNVALE STREET
CarParkType: MULTI-STOREY CAR PARK
Latitude: 1.396868
Longitude: 103.881715
AvailableLots: 479
LotType: C
TotalLots: 1104
-----------------------------------
CarParkID: B43
Address: BLK 519/522 553 BEDOK NORTH AVENUE 1/2
CarParkType: 
Latitude: 1.331105
Longitude: 103.927603
AvailableLots: 87
LotType: C
TotalLots: 217
-----------------------------------
CarParkID: PL87
Address: BLK 423C NORTHSHORE CRESCENT
CarParkType: BASEMENT CAR PARK
Latitude: 1.419393
Longitude: 103.906189
AvailableLots: 120
LotType: C
TotalLots: 383
-----------------------------------
CarParkID: S113
Address: BLK 353 ANCHORVALE LANE
CarParkType: MULTI-STOREY CAR PARK
Latitude: 1.393103
Longitude: 103.885656
AvailableLots: 182
LotType: C
TotalLots: 426
-----------------------------------
CarParkID: T3
Address: BLK 109/114 TAMPINES STREET 11
CarParkType: 
Latitude: 1.346641
Longitude: 103.947442
AvailableLots: 103
LotType: C
TotalLots: 277
-----------------------------------
CarParkID: W107
Address: BLK 569A-569B CHAMPIONS WAY
CarParkType: SURFACE CAR PARK
Latitude: 1.429800
Longitude: 103.789597
AvailableLots: 1
LotType: C
TotalLots: 50
-----------------------------------
CarParkID: MP14
Address: BLK 81/82 MARINE PARADE ROAD
CarParkType: SURFACE CAR PARK
Latitude: 1.302545
Longitude: 103.906950
AvailableLots: 42
LotType: C
TotalLots: 60
-----------------------------------
CarParkID: KU9
Address: BLK 302,304 UBI AVENUE 1
CarParkType: SURFACE CAR PARK
Latitude: 1.329907
Longitude: 103.901089
AvailableLots: 0
LotType: C
TotalLots: 101
-----------------------------------
CarParkID: C15M
Address: BLK 440 CLEMENTI AVENUE 3
CarParkType: MULTI-STOREY CAR PARK
Latitude: 1.316254
Longitude: 103.764046
AvailableLots: 158
LotType: C
TotalLots: 289
-----------------------------------
CarParkID: SB45
Address: BLK 132 CANBERRA VIEW
CarParkType: MULTI-STOREY CAR PARK
Latitude: 1.443384
Longitude: 103.830759
AvailableLots: 271
LotType: C
TotalLots: 416
-----------------------------------
CarParkID: Q97
Address: BLK 64 COMMONWEALTH DRIVE
CarParkType: SURFACE CAR PARK
Latitude: 1.299199
Longitude: 103.797385
AvailableLots: 
LotType: 
TotalLots: 
-----------------------------------
CarParkID: SL1
Address: BLK 2 EAST COAST ROAD
CarParkType: SURFACE CAR PARK
Latitude: 1.311762
Longitude: 103.923632
AvailableLots: 
LotType: 
TotalLots: 
-----------------------------------
CarParkID: SK91
Address: BLK 281 SENGKANG EAST AVENUE
CarParkType: MULTI-STOREY CAR PARK
Latitude: 1.385523
Longitude: 103.891495
AvailableLots: 197
LotType: C
TotalLots: 381
-----------------------------------
CarParkID: PM27
Address: BLK 578A PASIR RIS STREET 53
CarParkType: MULTI-STOREY CAR PARK
Latitude: 1.373960
Longitude: 103.946596
AvailableLots: 113
LotType: C
TotalLots: 326
-----------------------------------
CarParkID: CKM4
Address: BLK 474A CHOA CHU KANG AVENUE 3
CarParkType: MULTI-STOREY CAR PARK
Latitude: 1.378637
Longitude: 103.737929
AvailableLots: 255
LotType: C
TotalLots: 537
-----------------------------------
CarParkID: M0040
Address: MACKENZIE ROAD A OFF STREET
CarParkType: SURFACE CAR PARK
Latitude: 1.305167
Longitude: 103.849556
AvailableLots: 41
LotType: C
TotalLots: 
-----------------------------------
CarParkID: HG50
Address: BLK 534-545 HOUGANG AVENUE 8
CarParkType: SURFACE CAR PARK
Latitude: 1.377331
Longitude: 103.891333
AvailableLots: 116
LotType: C
TotalLots: 490
-----------------------------------
CarParkID: PL48
Address: BLK 271 PUNGGOL WALK
CarParkType: COVERED CAR PARK
Latitude: 1.403004
Longitude: 103.900383
AvailableLots: 130
LotType: C
TotalLots: 476
-----------------------------------
CarParkID: J46
Address: BLK 501/504 JURONG WEST STREET 51
CarParkType: SURFACE CAR PARK
Latitude: 1.349753
Longitude: 103.719058
AvailableLots: 34
LotType: C
TotalLots: 63
-----------------------------------
CarParkID: TGM3
Address: BLK 22A TEBAN GARDENS ROAD
CarParkType: MULTI-STOREY CAR PARK
Latitude: 1.323261
Longitude: 103.739328
AvailableLots: 210
LotType: C
TotalLots: 553
-----------------------------------
CarParkID: B6M
Address: BLK 208A NEW UPPER CHANGI ROAD
CarParkType: MULTI-STOREY CAR PARK
Latitude: 1.325173
Longitude: 103.930886
AvailableLots: 
LotType: 
TotalLots: 
-----------------------------------
CarParkID: U0042
Address: UPPER CHANGI ROAD - BEDOK ROAD OFF STREET
CarParkType: SURFACE CAR PARK
Latitude: 1.332124
Longitude: 103.946468
AvailableLots: 47
LotType: C
TotalLots: 
-----------------------------------
CarParkID: BM26
Address: BLK 1/3/5 JALAN BUKIT MERAH
CarParkType: SURFACE CAR PARK
Latitude: 1.287291
Longitude: 103.807426
AvailableLots: 329
LotType: C
TotalLots: 460
-----------------------------------
CarParkID: SB3
Address: BLK 325A SEMBAWANG CRESCENT
CarParkType: MULTI-STOREY CAR PARK
Latitude: 1.444955
Longitude: 103.818772
AvailableLots: 157
LotType: C
TotalLots: 359
-----------------------------------
CarParkID: PL45
Address: BLK 169 PUNGGOL FIELD
CarParkType: MULTI-STOREY CAR PARK
Latitude: 1.393629
Longitude: 103.914500
AvailableLots: 95
LotType: C
TotalLots: 354
-----------------------------------
CarParkID: Y63M
Address: BLK 333 YISHUN STREET 31
CarParkType: MULTI-STOREY CAR PARK
Latitude: 1.431656
Longitude: 103.845007
AvailableLots: 181
LotType: C
TotalLots: 390
-----------------------------------
CarParkID: CK18
Address: BLK 130/132 CHOA CHU KANG AVENUE 1
CarParkType: SURFACE CAR PARK
Latitude: 1.380998
Longitude: 103.750623
AvailableLots: 11
LotType: C
TotalLots: 98
-----------------------------------
CarParkID: A8
Address: BLK 209/210 ANG MO KIO STREET 22
CarParkType: 
Latitude: 1.368756
Longitude: 103.843308
AvailableLots: 0
LotType: C
TotalLots: 48
-----------------------------------
CarParkID: B65
Address: BLK 155/172 BEDOK SOUTH ROAD/AVENUE 3
CarParkType: 
Latitude: 1.320033
Longitude: 103.945659
AvailableLots: 204
LotType: C
TotalLots: 743
-----------------------------------
CarParkID: SIM3
Address: BLK 166 SIMEI ROAD MSCP
CarParkType: MULTI-STOREY CAR PARK
Latitude: 1.345370
Longitude: 103.958166
AvailableLots: 155
LotType: C
TotalLots: 236
-----------------------------------
CarParkID: TJ35
Address: BLK 183A CORPORATION DRIVE
CarParkType: MULTI-STOREY CAR PARK
Latitude: 1.332900
Longitude: 103.722484
AvailableLots: 117
LotType: C
TotalLots: 365
-----------------------------------
CarParkID: BE24
Address: BLK 201/206 BISHAN STREET 23
CarParkType: SURFACE CAR PARK
Latitude: 1.355332
Longitude: 103.847483
AvailableLots: 
LotType: 
TotalLots: 
-----------------------------------
CarParkID: TY4
Address: BLK 21 TOH YI DRIVE
CarParkType: SURFACE CAR PARK
Latitude: 1.338462
Longitude: 103.771971
AvailableLots: 
LotType: 
TotalLots: 
-----------------------------------
CarParkID: P0048
Address: PEARL BANK OFF STREET
CarParkType: SURFACE CAR PARK
Latitude: 1.283348
Longitude: 103.840538
AvailableLots: 18
LotType: C
TotalLots: 
-----------------------------------
CarParkID: HG3D
Address: BLK 998 BUANGKOK CRESCENT
CarParkType: MULTI-STOREY CAR PARK
Latitude: 1.384210
Longitude: 103.879673
AvailableLots: 89
LotType: C
TotalLots: 265
-----------------------------------
CarParkID: PDP5
Address: BLK 524A JELAPANG ROAD
CarParkType: SURFACE CAR PARK
Latitude: 1.385415
Longitude: 103.766072
AvailableLots: 103
LotType: C
TotalLots: 140
-----------------------------------
CarParkID: SB17
Address: BLK 504 MONTREAL DRIVE
CarParkType: MULTI-STOREY CAR PARK
Latitude: 1.450907
Longitude: 103.823690
AvailableLots: 420
LotType: C
TotalLots: 563
-----------------------------------
CarParkID: B34
Address: BLK 134/136 BEDOK NORTH AVENUE 3
CarParkType: 
Latitude: 1.328312
Longitude: 103.935673
AvailableLots: 167
LotType: C
TotalLots: 274
-----------------------------------
CarParkID: SK19
Address: BLK 190C RIVERVALE DRIVE
CarParkType: MULTI-STOREY CAR PARK
Latitude: 1.394773
Longitude: 103.902428
AvailableLots: 270
LotType: C
TotalLots: 609
-----------------------------------
CarParkID: SD3
Address: BLK 46/47/48/49 SIMS PLACE
CarParkType: SURFACE CAR PARK
Latitude: 1.317329
Longitude: 103.879247
AvailableLots: 86
LotType: C
TotalLots: 102
-----------------------------------
CarParkID: U17
Address: BLK 242/253 BUKIT BATOK EAST AVENUE 2/5
CarParkType: SURFACE CAR PARK
Latitude: 1.350095
Longitude: 103.756805
AvailableLots: 99
LotType: C
TotalLots: 427
-----------------------------------
CarParkID: J0092
Address: JALAN KURAS OFF STREET
CarParkType: SURFACE CAR PARK
Latitude: 1.373316
Longitude: 103.829027
AvailableLots: 30
LotType: C
TotalLots: 
-----------------------------------
CarParkID: CK45
Address: BLK 771A CHOA CHU KANG STREET 54
CarParkType: MULTI-STOREY CAR PARK
Latitude: 1.394517
Longitude: 103.749967
AvailableLots: 24
LotType: C
TotalLots: 220
-----------------------------------
CarParkID: Y21M
Address: BLK 296A YISHUN STREET 20
CarParkType: MULTI-STOREY CAR PARK
Latitude: 1.435359
Longitude: 103.834854
AvailableLots: 197
LotType: C
TotalLots: 367
-----------------------------------
CarParkID: SB29
Address: BLK 508 WELLINGTON CIRCLE
CarParkType: MULTI-STOREY CAR PARK
Latitude: 1.453030
Longitude: 103.820084
AvailableLots: 390
LotType: C
TotalLots: 628
-----------------------------------
CarParkID: KM3
Address: BLK 11A PINE CLOSE
CarParkType: MULTI-STOREY CAR PARK
Latitude: 1.308517
Longitude: 103.882928
AvailableLots: 331
LotType: C
TotalLots: 535
-----------------------------------
CarParkID: Q5S
Address: BLK 165-166 STIRLING ROAD
CarParkType: SURFACE CAR PARK
Latitude: 1.290779
Longitude: 103.802147
AvailableLots: 
LotType: 
TotalLots: 
-----------------------------------
CarParkID: 58
Address: Bukit Panjang Plaza
CarParkType: MULTI-STOREY CAR PARK
Latitude: 1.379740
Longitude: 103.764400
AvailableLots: 135
LotType: C
TotalLots: 
-----------------------------------
CarParkID: SE38
Address: BLK 504A SERANGOON NORTH AVENUE 4
CarParkType: MULTI-STOREY CAR PARK
Latitude: 1.373953
Longitude: 103.875715
AvailableLots: 257
LotType: C
TotalLots: 442
-----------------------------------
CarParkID: W82
Address: BLK 787A WOODLANDS CRESCENT
CarParkType: MULTI-STOREY CAR PARK
Latitude: 1.444514
Longitude: 103.801607
AvailableLots: 260
LotType: C
TotalLots: 450
-----------------------------------
CarParkID: TP18
Address: BLK 186/191 TO 193 TOA PAYOH TOWN CENTRE
CarParkType: SURFACE CAR PARK
Latitude: 1.332589
Longitude: 103.850744
AvailableLots: 343
LotType: C
TotalLots: 383
-----------------------------------
CarParkID: HG61
Address: BLK 559A HOUGANG STREET 51
CarParkType: MULTI-STOREY CAR PARK
Latitude: 1.379653
Longitude: 103.889154
AvailableLots: 151
LotType: C
TotalLots: 311
-----------------------------------
CarParkID: MP4M
Address: BLK 16A MARINE TERRACE
CarParkType: MULTI-STOREY CAR PARK
Latitude: 1.303996
Longitude: 103.914197
AvailableLots: 301
LotType: C
TotalLots: 302
-----------------------------------
CarParkID: SE18
Address: BLK 330/335 SERANGOON AVENUE 3
CarParkType: SURFACE CAR PARK
Latitude: 1.350197
Longitude: 103.870464
AvailableLots: 70
LotType: C
TotalLots: 279
-----------------------------------
CarParkID: GM6B
Address: BLK 16A GHIM MOH ROAD
CarParkType: MULTI-STOREY CAR PARK
Latitude: 1.309610
Longitude: 103.787652
AvailableLots: 167
LotType: C
TotalLots: 232
-----------------------------------
CarParkID: W11M
Address: BLK 29A MARSILING DR
CarParkType: MULTI-STOREY CAR PARK
Latitude: 1.442723
Longitude: 103.772856
AvailableLots: 24
LotType: C
TotalLots: 298
-----------------------------------
CarParkID: 5
Address: Millenia Singapore
CarParkType: MULTI-STOREY CAR PARK
Latitude: 1.292510
Longitude: 103.860090
AvailableLots: 1241
LotType: C
TotalLots: 
-----------------------------------
CarParkID: CK64
Address: BLK 692 CHOA CHU KANG CRESCENT
CarParkType: MULTI-STOREY CAR PARK
Latitude: 1.399762
Longitude: 103.751303
AvailableLots: 233
LotType: C
TotalLots: 455
-----------------------------------
CarParkID: BJ50
Address: BLK 468A SEGAR ROAD
CarParkType: MULTI-STOREY CAR PARK
Latitude: 1.388183
Longitude: 103.773689
AvailableLots: 460
LotType: C
TotalLots: 854
-----------------------------------
CarParkID: TP63
Address: BLK 202 TO 204 TOA PAYOH NORTH
CarParkType: SURFACE CAR PARK
Latitude: 1.341762
Longitude: 103.849032
AvailableLots: 102
LotType: C
TotalLots: 173
-----------------------------------
CarParkID: TM42
Address: BLK 823A TAMPINES STREET 81
CarParkType: MULTI-STOREY CAR PARK
Latitude: 1.348936
Longitude: 103.933507
AvailableLots: 236
LotType: C
TotalLots: 261
-----------------------------------
CarParkID: TPMP
Address: BLK 138 LORONG 1A TOA PAYOH
CarParkType: MULTI-STOREY CAR PARK
Latitude: 1.336683
Longitude: 103.844801
AvailableLots: 219
LotType: C
TotalLots: 808
-----------------------------------
CarParkID: CK70
Address: BLK 476 CHOA CHU KANG AVENUE 5
CarParkType: MULTI-STOREY CAR PARK
Latitude: 1.376933
Longitude: 103.738146
AvailableLots: 520
LotType: C
TotalLots: 620
-----------------------------------
CarParkID: W55
Address: BLK 859A WOODLANDS STREET 83
CarParkType: MULTI-STOREY CAR PARK
Latitude: 1.439804
Longitude: 103.794529
AvailableLots: 152
LotType: C
TotalLots: 373
-----------------------------------
CarParkID: P5
Address: BLK 107 PUNGGOL FIELD
CarParkType: 
Latitude: 1.396878
Longitude: 103.907642
AvailableLots: 184
LotType: C
TotalLots: 520
-----------------------------------
CarParkID: CK77
Address: BLK 815 CHOA CHU KANG AVENUE 7
CarParkType: MULTI-STOREY CAR PARK
Latitude: 1.376557
Longitude: 103.746713
AvailableLots: 515
LotType: C
TotalLots: 798
-----------------------------------
CarParkID: K22
Address: BLK 60 DAKOTA CRESCENT
CarParkType: SURFACE CAR PARK
Latitude: 1.307546
Longitude: 103.888377
AvailableLots: 
LotType: 
TotalLots: 
-----------------------------------
CarParkID: SK62
Address: BLK 408 FERNVALE ROAD
CarParkType: MULTI-STOREY CAR PARK
Latitude: 1.388882
Longitude: 103.876719
AvailableLots: 473
LotType: C
TotalLots: 646
-----------------------------------
CarParkID: J50
Address: BLK 401/408 JURONG WEST STREET 42
CarParkType: SURFACE CAR PARK
Latitude: 1.353707
Longitude: 103.722521
AvailableLots: 72
LotType: C
TotalLots: 434
-----------------------------------
CarParkID: TPMH
Address: BLK 260 KIM KEAT AVENUE
CarParkType: MULTI-STOREY CAR PARK
Latitude: 1.332022
Longitude: 103.857398
AvailableLots: 141
LotType: C
TotalLots: 246
-----------------------------------
CarParkID: TM24
Address: BLK 359A TAMPINES STREET 34
CarParkType: MULTI-STOREY CAR PARK
Latitude: 1.355417
Longitude: 103.961442
AvailableLots: 146
LotType: C
TotalLots: 344
-----------------------------------
CarParkID: S111
Address: BLK 455 SENGKANG WEST AVENUE
CarParkType: MULTI-STOREY CAR PARK
Latitude: 1.391814
Longitude: 103.871244
AvailableLots: 183
LotType: C
TotalLots: 570
-----------------------------------
CarParkID: J2
Address: BLK 108/110 JURONG EAST STREET 13
CarParkType: 
Latitude: 1.338608
Longitude: 103.736771
AvailableLots: 82
LotType: C
TotalLots: 200
-----------------------------------
CarParkID: W5M
Address: BLK 13A MARSILING LANE
CarParkType: MULTI-STOREY CAR PARK
Latitude: 1.441639
Longitude: 103.778753
AvailableLots: 78
LotType: C
TotalLots: 203
-----------------------------------
CarParkID: PM10
Address: BLK 204A PASIR RIS STREET 21
CarParkType: MULTI-STOREY CAR PARK
Latitude: 1.366746
Longitude: 103.962474
AvailableLots: 77
LotType: C
TotalLots: 355
-----------------------------------
CarParkID: PM23
Address: BLK 564A PASIR RIS STREET 51
CarParkType: MULTI-STOREY CAR PARK
Latitude: 1.368681
Longitude: 103.949503
AvailableLots: 266
LotType: C
TotalLots: 380
-----------------------------------
CarParkID: PL55
Address: BLK 261 PUNGGOL WAY
CarParkType: MULTI-STOREY CAR PARK
Latitude: 1.405404
Longitude: 103.896841
AvailableLots: 216
LotType: C
TotalLots: 364
-----------------------------------
CarParkID: Y75M
Address: BLOCK 674 YISHUN AVENUE 4
CarParkType: MULTI-STOREY CAR PARK
Latitude: 1.420176
Longitude: 103.843083
AvailableLots: 327
LotType: C
TotalLots: 379
-----------------------------------
CarParkID: WCB
Address: BLK 261/262/264 WATERLOO BASEMENT CAR PARK
CarParkType: BASEMENT CAR PARK
Latitude: 1.298808
Longitude: 103.851937
AvailableLots: 90
LotType: C
TotalLots: 143
-----------------------------------
CarParkID: B51
Address: BLK 611/616 BEDOK RESERVOIR ROAD
CarParkType: 
Latitude: 1.332147
Longitude: 103.916396
AvailableLots: 143
LotType: C
TotalLots: 322
-----------------------------------
CarParkID: BE23
Address: BLK 514 BISHAN STREET 13
CarParkType: MULTI-STOREY CAR PARK
Latitude: 1.350095
Longitude: 103.849763
AvailableLots: 554
LotType: C
TotalLots: 563
-----------------------------------
CarParkID: W785
Address: BLK 785 WOODLANDS RISE
CarParkType: MULTI-STOREY CAR PARK
Latitude: 1.447066
Longitude: 103.804995
AvailableLots: 224
LotType: C
TotalLots: 487
-----------------------------------
CarParkID: A71
Address: BLK 628/632 ANG MO KIO STREET 61
CarParkType: 
Latitude: 1.380009
Longitude: 103.840742
AvailableLots: 117
LotType: C
TotalLots: 185
-----------------------------------
CarParkID: A77
Address: BLK 150/156 ANG MO KIO AVENUE 5
CarParkType: 
Latitude: 1.376353
Longitude: 103.839979
AvailableLots: 88
LotType: C
TotalLots: 276
-----------------------------------
CarParkID: SK61
Address: BLK 406 FERNVALE ROAD
CarParkType: MULTI-STOREY CAR PARK
Latitude: 1.388177
Longitude: 103.874837
AvailableLots: 50
LotType: H
TotalLots: 10
-----------------------------------
CarParkID: P73L
Address: BLK 229A & 229B SUMANG LANE
CarParkType: SURFACE CAR PARK
Latitude: 1.402737
Longitude: 103.891947
AvailableLots: 2
LotType: C
TotalLots: 4
-----------------------------------
CarParkID: P4
Address: BLK 105 EDGEFIELD PLAINS
CarParkType: 
Latitude: 1.397227
Longitude: 103.905623
AvailableLots: 121
LotType: C
TotalLots: 411
-----------------------------------
CarParkID: AR9
Address: BLK 20/22/23 DOVER CRESCENT
CarParkType: 
Latitude: 1.307284
Longitude: 103.783440
AvailableLots: 50
LotType: H
TotalLots: 64
-----------------------------------
CarParkID: BJ4
Address: BLK 219/233 PETIR ROAD
CarParkType: 
Latitude: 1.375531
Longitude: 103.772258
AvailableLots: 368
LotType: C
TotalLots: 824
-----------------------------------
CarParkID: MLM
Address: BLK 157A MEI LING STREET
CarParkType: MULTI-STOREY CAR PARK
Latitude: 1.293364
Longitude: 103.803454
AvailableLots: 119
LotType: C
TotalLots: 277
-----------------------------------
CarParkID: BJ62
Address: BLK 454 FAJAR ROAD
CarParkType: SURFACE CAR PARK
Latitude: 1.384268
Longitude: 103.771396
AvailableLots: 14
LotType: C
TotalLots: 68
-----------------------------------
CarParkID: H0022
Address: HULLET ROAD OFF STREET
CarParkType: SURFACE CAR PARK
Latitude: 1.303200
Longitude: 103.839043
AvailableLots: 18
LotType: C
TotalLots: 
-----------------------------------
CarParkID: U38
Address: BLK 185/187 BUKIT BATOK WEST AVENUE 6
CarParkType: SURFACE CAR PARK
Latitude: 1.346725
Longitude: 103.744577
AvailableLots: 1
LotType: C
TotalLots: 115
-----------------------------------
CarParkID: HG94
Address: BLK 984 BUANGKOK LINK
CarParkType: MULTI-STOREY CAR PARK
Latitude: 1.381560
Longitude: 103.880647
AvailableLots: 546
LotType: C
TotalLots: 896
-----------------------------------
CarParkID: P40L
Address: BLK 740 TO 745 PASIR RIS STREET 71
CarParkType: SURFACE CAR PARK
Latitude: 1.378101
Longitude: 103.935933
AvailableLots: 3
LotType: C
TotalLots: 6
-----------------------------------
CarParkID: C26
Address: BLK 105-107 CLEMENTI STREET 12
CarParkType: 
Latitude: 1.322588
Longitude: 103.769929
AvailableLots: 22
LotType: Y
TotalLots: 35
-----------------------------------
CarParkID: Y4
Address: BLK 121/143 YISHUN STREET 11/RING ROAD
CarParkType: 
Latitude: 1.434752
Longitude: 103.831510
AvailableLots: 225
LotType: C
TotalLots: 807
-----------------------------------
CarParkID: C24
Address: BLK 110/118 CLEMENTI STREET 13
CarParkType: 
Latitude: 1.324198
Longitude: 103.771287
AvailableLots: 53
LotType: C
TotalLots: 450
-----------------------------------
CarParkID: TBM2
Address: BLK 73A TELOK BLANGAH STREET 32
CarParkType: MULTI-STOREY CAR PARK
Latitude: 1.275304
Longitude: 103.809223
AvailableLots: 164
LotType: C
TotalLots: 243
-----------------------------------
CarParkID: CV1
Address: BLK 1/1A TELOK PAKU ROAD
CarParkType: MECHANISED AND SURFACE CAR PARK
Latitude: 1.388328
Longitude: 103.988178
AvailableLots: 179
LotType: C
TotalLots: 208
-----------------------------------
CarParkID: A101
Address: BLK 651 ANG MO KIO AVENUE 9
CarParkType: MULTI-STOREY CAR PARK
Latitude: 1.383038
Longitude: 103.841739
AvailableLots: 76
LotType: C
TotalLots: 200
-----------------------------------
CarParkID: T4
Address: BLK 124/127 TAMPINES STREET 11
CarParkType: 
Latitude: 1.345420
Longitude: 103.949814
AvailableLots: 86
LotType: C
TotalLots: 301
-----------------------------------
CarParkID: C37
Address: BLK 720-727,730-731 CLEMENTI WEST STREET 2
CarParkType: 
Latitude: 1.303538
Longitude: 103.763972
AvailableLots: 69
LotType: C
TotalLots: 423
-----------------------------------
CarParkID: W516
Address: BLK 516A WOODLANDS DRIVE 14
CarParkType: MULTI-STOREY CAR PARK
Latitude: 1.434167
Longitude: 103.790776
AvailableLots: 383
LotType: C
TotalLots: 574
-----------------------------------
CarParkID: CK6A
Address: BLK 146A 146A TECK WHYE AVENUE
CarParkType: MULTI-STOREY CAR PARK
Latitude: 1.381035
Longitude: 103.753137
AvailableLots: 156
LotType: C
TotalLots: 227
-----------------------------------
CarParkID: SB34
Address: BLK 462 SEMBAWANG DRIVE
CarParkType: SURFACE CAR PARK
Latitude: 1.454644
Longitude: 103.813521
AvailableLots: 1
LotType: C
TotalLots: 63
-----------------------------------
CarParkID: B88
Address: BLK 34A BED0K SOUTH AVENUE 2
CarParkType: 
Latitude: 1.322273
Longitude: 103.938299
AvailableLots: 147
LotType: C
TotalLots: 385
-----------------------------------
CarParkID: CKM1
Address: BLK 429A CHOA CHU KANG AVENUE 4
CarParkType: MULTI-STOREY CAR PARK
Latitude: 1.383596
Longitude: 103.740824
AvailableLots: 573
LotType: C
TotalLots: 669
-----------------------------------
CarParkID: J58
Address: BLK 132 JURONG GATEWAY ROAD
CarParkType: MULTI-STOREY CAR PARK
Latitude: 1.334202
Longitude: 103.739656
AvailableLots: 
LotType: 
TotalLots: 
-----------------------------------
CarParkID: Y8
Address: BLK 731/746 YISHUN STREET 71/72/AVENUE 5
CarParkType: 
Latitude: 1.429445
Longitude: 103.831278
AvailableLots: 328
LotType: C
TotalLots: 697
-----------------------------------
CarParkID: J40
Address: BLK 462-467 JURONG WEST STREET 41
CarParkType: SURFACE CAR PARK
Latitude: 1.350029
Longitude: 103.722878
AvailableLots: 38
LotType: C
TotalLots: 206
-----------------------------------
CarParkID: SI8
Address: BLK 138 SIMEI STREET 1
CarParkType: SURFACE CAR PARK
Latitude: 1.347209
Longitude: 103.957122
AvailableLots: 67
LotType: C
TotalLots: 115
-----------------------------------
CarParkID: KJ3
Address: BLK 48/48A DURHAM ROAD
CarParkType: SURFACE CAR PARK
Latitude: 1.314426
Longitude: 103.849930
AvailableLots: 157
LotType: C
TotalLots: 334
-----------------------------------
CarParkID: U68
Address: BLK 460 BUKIT BATOK WEST AVENUE 9
CarParkType: MULTI-STOREY CAR PARK
Latitude: 1.353941
Longitude: 103.739759
AvailableLots: 98
LotType: C
TotalLots: 258
-----------------------------------
CarParkID: PDP4
Address: BLK 446A FAJAR ROAD
CarParkType: SURFACE/MULTI-STOREY CAR PARK
Latitude: 1.383767
Longitude: 103.771371
AvailableLots: 165
LotType: C
TotalLots: 167
-----------------------------------
CarParkID: B53
Address: BLK 625/629 BEDOK RESERVOIR ROAD
CarParkType: 
Latitude: 1.334251
Longitude: 103.915177
AvailableLots: 39
LotType: C
TotalLots: 197
-----------------------------------
CarParkID: A27
Address: BLK 108/109/110 ANG MO KIO STREET 11
CarParkType: 
Latitude: 1.370363
Longitude: 103.838321
AvailableLots: 69
LotType: C
TotalLots: 237
-----------------------------------
CarParkID: T34
Address: BLK 283/286 TAMPINES STREET 22
CarParkType: SURFACE CAR PARK
Latitude: 1.348911
Longitude: 103.952685
AvailableLots: 74
LotType: C
TotalLots: 284
-----------------------------------
CarParkID: W4
Address: BLK 6/7 MARSILING DRIVE
CarParkType: 
Latitude: 1.442458
Longitude: 103.776820
AvailableLots: 10
LotType: C
TotalLots: 32
-----------------------------------
CarParkID: TB4A
Address: BLK 18 & 19 TELOK BLANGAH CRESCENT
CarParkType: SURFACE CAR PARK
Latitude: 1.277634
Longitude: 103.822440
AvailableLots: 40
LotType: C
TotalLots: 46
-----------------------------------
CarParkID: JM13
Address: BLK 601A JURONG WEST STREET 62
CarParkType: MULTI-STOREY CAR PARK
Latitude: 1.339470
Longitude: 103.699745
AvailableLots: 606
LotType: C
TotalLots: 1061
-----------------------------------
CarParkID: TM16
Address: BLK 230A TAMPINES STREET 21
CarParkType: MULTI-STOREY CAR PARK
Latitude: 1.355754
Longitude: 103.950231
AvailableLots: 104
LotType: C
TotalLots: 284
-----------------------------------
CarParkID: M25
Address: BLK 53 TO 56/68/70/71/72 PIPIT RD/CIRCUIT ROAD
CarParkType: SURFACE CAR PARK
Latitude: 1.324225
Longitude: 103.888177
AvailableLots: 160
LotType: C
TotalLots: 417
-----------------------------------
CarParkID: BJ15
Address: BLK 259A BANGKIT ROAD
CarParkType: MULTI-STOREY CAR PARK
Latitude: 1.377494
Longitude: 103.773782
AvailableLots: 0
LotType: C
TotalLots: 37
-----------------------------------
CarParkID: U60
Address: BLK 451 BUKIT BATOK WEST AVENUE 6
CarParkType: MULTI-STOREY CAR PARK
Latitude: 1.353039
Longitude: 103.744008
AvailableLots: 155
LotType: C
TotalLots: 558
-----------------------------------
CarParkID: B13
Address: BLK 414/425 BEDOK NORTH ROAD
CarParkType: SURFACE CAR PARK
Latitude: 1.329653
Longitude: 103.929763
AvailableLots: 
LotType: 
TotalLots: 
-----------------------------------
CarParkID: HG3A
Address: BLK 997 BUANGKOK CRESCENT
CarParkType: MULTI-STOREY CAR PARK
Latitude: 1.385422
Longitude: 103.880787
AvailableLots: 
LotType: 
TotalLots: 
-----------------------------------
CarParkID: TE28
Address: BLK 81 TIONG POH ROAD/KENG KIAT STREET
CarParkType: SURFACE CAR PARK
Latitude: 1.282621
Longitude: 103.832645
AvailableLots: 
LotType: 
TotalLots: 
-----------------------------------
CarParkID: U43
Address: BLK 404A BUKIT BATOK WEST AVENUE 7
CarParkType: MULTI-STOREY CAR PARK
Latitude: 1.365082
Longitude: 103.745937
AvailableLots: 108
LotType: C
TotalLots: 270
-----------------------------------
CarParkID: B50
Address: BLK 601/605 BEDOK RESERVOIR ROAD
CarParkType: 
Latitude: 1.330447
Longitude: 103.913067
AvailableLots: 169
LotType: C
TotalLots: 581
-----------------------------------
CarParkID: BM29
Address: BLK 163 BUKIT MERAH CENTRAL
CarParkType: BASEMENT CAR PARK
Latitude: 1.283634
Longitude: 103.817099
AvailableLots: 78
LotType: C
TotalLots: 97
-----------------------------------
CarParkID: CK20
Address: BLK 429, 438-441 CHOA CHU KANG AVENUE 4
CarParkType: SURFACE CAR PARK
Latitude: 1.383382
Longitude: 103.740133
AvailableLots: 374
LotType: C
TotalLots: 931
-----------------------------------
CarParkID: JS33
Address: BLK 991A/B, 992A/B, UPPER JURONG ROAD UPPER JURONG ROAD
CarParkType: SURFACE CAR PARK
Latitude: 1.335149
Longitude: 103.693663
AvailableLots: 4
LotType: C
TotalLots: 8
-----------------------------------
CarParkID: PL69
Address: BLK 661 EDGEDALE PLAINS
CarParkType: MULTI-STOREY CAR PARK
Latitude: 1.402534
Longitude: 103.917614
AvailableLots: 334
LotType: C
TotalLots: 699
-----------------------------------
CarParkID: HG3B
Address: BLK 991 BUANGKOK LINK
CarParkType: MULTI-STOREY CAR PARK
Latitude: 1.384299
Longitude: 103.881624
AvailableLots: 235
LotType: C
TotalLots: 422
-----------------------------------
CarParkID: SK98
Address: BLK 414 FERNVALE LINK
CarParkType: COVERED CAR PARK
Latitude: 1.389648
Longitude: 103.880082
AvailableLots: 200
LotType: C
TotalLots: 816
-----------------------------------
CarParkID: C7
Address: BLK 349-355 CLEMENTI AVENUE 2
CarParkType: 
Latitude: 1.314884
Longitude: 103.770755
AvailableLots: 0
LotType: C
TotalLots: 30
-----------------------------------
CarParkID: B50B
Address: BLK 609A BEDOK RESERVOIR ROAD
CarParkType: SURFACE CAR PARK
Latitude: 1.331636
Longitude: 103.911952
AvailableLots: 
LotType: 
TotalLots: 
-----------------------------------
CarParkID: PP5
Address: BLK 113 TO 120 POTONG PASIR AVENUE 1
CarParkType: SURFACE CAR PARK
Latitude: 1.336312
Longitude: 103.863223
AvailableLots: 89
LotType: C
TotalLots: 346
-----------------------------------
CarParkID: P71L
Address: BLK 684A & 684B EDGEDALE PLAINS
CarParkType: SURFACE CAR PARK
Latitude: 1.403031
Longitude: 103.915902
AvailableLots: 3
LotType: C
TotalLots: 5
-----------------------------------
CarParkID: A10
Address: BLK 201/202 ANG MO KIO STREET 22
CarParkType: 
Latitude: 1.368633
Longitude: 103.844524
AvailableLots: 28
LotType: C
TotalLots: 63
-----------------------------------
CarParkID: C41
Address: CLEMENTI WOODS
CarParkType: SURFACE CAR PARK
Latitude: 1.300117
Longitude: 103.768529
AvailableLots: 
LotType: 
TotalLots: 
-----------------------------------
CarParkID: BRM5
Address: BLK 19A JALAN TENTERAM
CarParkType: MULTI-STOREY CAR PARK
Latitude: 1.327517
Longitude: 103.859430
AvailableLots: 193
LotType: C
TotalLots: 376
-----------------------------------
CarParkID: CK16
Address: BLK 401/408 CHOA CHU KANG AVENUE 3
CarParkType: SURFACE CAR PARK
Latitude: 1.379628
Longitude: 103.739221
AvailableLots: 79
LotType: C
TotalLots: 320
-----------------------------------
CarParkID: BKRM
Address: BLK 6A BOON KENG ROAD
CarParkType: MULTI-STOREY CAR PARK
Latitude: 1.317276
Longitude: 103.861368
AvailableLots: 187
LotType: C
TotalLots: 278
-----------------------------------
CarParkID: K19
Address: BLK 62 DAKOTA CRESCENT
CarParkType: SURFACE CAR PARK
Latitude: 1.307862
Longitude: 103.889303
AvailableLots: 17
LotType: C
TotalLots: 96
-----------------------------------
CarParkID: KJML
Address: BLK 14A FARRER PARK ROAD
CarParkType: SURFACE CAR PARK
Latitude: 1.312220
Longitude: 103.851606
AvailableLots: 4
LotType: C
TotalLots: 5
-----------------------------------
CarParkID: SB14
Address: BLK 406A SEMBAWANG DRIVE
CarParkType: MULTI-STOREY CAR PARK
Latitude: 1.452397
Longitude: 103.817432
AvailableLots: 
LotType: 
TotalLots: 
-----------------------------------
CarParkID: TE23
Address: BLK 59 ENG HOON STREET
CarParkType: SURFACE CAR PARK
Latitude: 1.284258
Longitude: 103.833526
AvailableLots: 
LotType: 
TotalLots: 
-----------------------------------
CarParkID: B28
Address: BLK 107/110 BEDOK NORTH ROAD
CarParkType: 
Latitude: 1.332545
Longitude: 103.935571
AvailableLots: 209
LotType: C
TotalLots: 342
-----------------------------------
CarParkID: SK80
Address: BLK 434 FERNVALE ROAD
CarParkType: MULTI-STOREY CAR PARK
Latitude: 1.393921
Longitude: 103.876526
AvailableLots: 95
LotType: C
TotalLots: 354
-----------------------------------
CarParkID: C14M
Address: BLK 318A CLEMENTI AVENUE 4
CarParkType: MULTI-STOREY CAR PARK
Latitude: 1.317392
Longitude: 103.765185
AvailableLots: 14
LotType: C
TotalLots: 212
-----------------------------------
CarParkID: PR4
Address: BLK 406/411 PASIR RIS DRIVE 6
CarParkType: SURFACE CAR PARK
Latitude: 1.372934
Longitude: 103.954520
AvailableLots: 350
LotType: C
TotalLots: 1117
-----------------------------------
CarParkID: J8M
Address: BLK 240C JURONG EAST AVENUE 1
CarParkType: MULTI-STOREY CAR PARK
Latitude: 1.340646
Longitude: 103.742426
AvailableLots: 100
LotType: C
TotalLots: 139
-----------------------------------
CarParkID: TM27
Address: BLK 497L TAMPINES STREET 45
CarParkType: MULTI-STOREY CAR PARK
Latitude: 1.360652
Longitude: 103.959888
AvailableLots: 175
LotType: C
TotalLots: 239
-----------------------------------
CarParkID: M20
Address: BLK 65 & 80 CIRCUIT ROAD
CarParkType: SURFACE CAR PARK
Latitude: 1.327590
Longitude: 103.887265
AvailableLots: 0
LotType: C
TotalLots: 36
-----------------------------------
CarParkID: PL24
Address: BLK 178 & 193 EDGEFIELD PLAINS
CarParkType: BASEMENT CAR PARK
Latitude: 1.399551
Longitude: 103.908336
AvailableLots: 510
LotType: C
TotalLots: 749
-----------------------------------
CarParkID: HG73
Address: BLK 909A HOUGANG STREET 91
CarParkType: MULTI-STOREY CAR PARK
Latitude: 1.378304
Longitude: 103.883551
AvailableLots: 799
LotType: C
TotalLots: 1052
-----------------------------------
CarParkID: K0121
Address: KAMPONG KAPOR ROAD OFF STREET
CarParkType: SURFACE CAR PARK
Latitude: 1.306579
Longitude: 103.854052
AvailableLots: 3
LotType: Y
TotalLots: 
-----------------------------------
CarParkID: T72
Address: BLK 401/417 TAMPINES STREET 41
CarParkType: SURFACE CAR PARK
Latitude: 1.358094
Longitude: 103.945610
AvailableLots: 283
LotType: C
TotalLots: 640
-----------------------------------
CarParkID: HE1
Address: BLK 102/103/104 HENDERSON CRESCENT
CarParkType: SURFACE CAR PARK
Latitude: 1.289221
Longitude: 103.822355
AvailableLots: 3
LotType: C
TotalLots: 21
-----------------------------------
CarParkID: J41
Address: BLK 468-473 JURONG WEST STREET 41
CarParkType: SURFACE CAR PARK
Latitude: 1.348289
Longitude: 103.722032
AvailableLots: 97
LotType: C
TotalLots: 350
-----------------------------------
CarParkID: MNRM
Address: BLK 108A MCNAIR ROAD
CarParkType: MULTI-STOREY CAR PARK
Latitude: 1.320540
Longitude: 103.859430
AvailableLots: 171
LotType: C
TotalLots: 355
-----------------------------------
CarParkID: SE40
Address: BLK 550A SERANGOON NORTH AVENUE 3
CarParkType: MULTI-STOREY CAR PARK
Latitude: 1.372540
Longitude: 103.870023
AvailableLots: 131
LotType: C
TotalLots: 407
-----------------------------------
CarParkID: J10
Address: BLK 246/249 JURONG EAST STREET 24
CarParkType: SURFACE CAR PARK
Latitude: 1.342016
Longitude: 103.740093
AvailableLots: 42
LotType: C
TotalLots: 175
-----------------------------------
CarParkID: YHS
Address: BLK 11/12/13 YORK HILL CAR PARK
CarParkType: SURFACE CAR PARK
Latitude: 1.286500
Longitude: 103.837886
AvailableLots: 37
LotType: C
TotalLots: 64
-----------------------------------
CarParkID: W693
Address: BLK 693 WOODLANDS AVENUE 6
CarParkType: MULTI-STOREY CAR PARK
Latitude: 1.438092
Longitude: 103.803700
AvailableLots: 139
LotType: C
TotalLots: 322
-----------------------------------
CarParkID: PL73
Address: BLK 228 PUNGGOL FIELD
CarParkType: MULTI-STOREY CAR PARK
Latitude: 1.403294
Longitude: 103.892024
AvailableLots: 
LotType: 
TotalLots: 
-----------------------------------
CarParkID: B25
Address: BLK 91/97 BEDOK NORTH AVENUE 4
CarParkType: 
Latitude: 1.332969
Longitude: 103.940490
AvailableLots: 0
LotType: C
TotalLots: 130
-----------------------------------
CarParkID: W187
Address: BLK 187 MARSILING ROAD
CarParkType: MULTI-STOREY CAR PARK
Latitude: 1.437425
Longitude: 103.774907
AvailableLots: 242
LotType: C
TotalLots: 634
-----------------------------------
CarParkID: W106
Address: BLK 690 WOODLANDS DRIVE 75
CarParkType: MULTI-STOREY CAR PARK
Latitude: 1.442935
Longitude: 103.808478
AvailableLots: 456
LotType: C
TotalLots: 709
-----------------------------------
CarParkID: JM27
Address: BLK 676 JURONG WEST STREET 64
CarParkType: MULTI-STOREY CAR PARK
Latitude: 1.346304
Longitude: 103.704584
AvailableLots: 357
LotType: C
TotalLots: 537
-----------------------------------
CarParkID: NT7L
Address: BLK 646 TAMPINES STREET 62
CarParkType: SURFACE CAR PARK
Latitude: 1.365114
Longitude: 103.942646
AvailableLots: 2
LotType: C
TotalLots: 4
-----------------------------------
CarParkID: BL13
Address: BLK 198/206 BOON LAY DRIVE
CarParkType: SURFACE CAR PARK
Latitude: 1.344692
Longitude: 103.715035
AvailableLots: 188
LotType: C
TotalLots: 413
-----------------------------------
CarParkID: AM22
Address: BLK 316B ANG MO KIO STREET 31
CarParkType: MULTI-STOREY CAR PARK
Latitude: 1.364588
Longitude: 103.847653
AvailableLots: 281
LotType: C
TotalLots: 459
-----------------------------------
CarParkID: MP2
Address: BLK 5 TO 8 MARINE TERRACE
CarParkType: SURFACE CAR PARK
Latitude: 1.304224
Longitude: 103.916657
AvailableLots: 145
LotType: C
TotalLots: 256
-----------------------------------
CarParkID: ACB
Address: BLK 270/271 ALBERT CENTRE BASEMENT CAR PARK
CarParkType: 
Latitude: 1.301063
Longitude: 103.854118
AvailableLots: 66
LotType: C
TotalLots: 93
-----------------------------------
CarParkID: P0117
Address: PECK SEAH STREET OFF STREET
CarParkType: SURFACE CAR PARK
Latitude: 1.277473
Longitude: 103.845267
AvailableLots: 137
LotType: C
TotalLots: 
-----------------------------------
CarParkID: BJ36
Address: BLK 525A JELAPANG ROAD
CarParkType: MULTI-STOREY CAR PARK
Latitude: 1.386270
Longitude: 103.765338
AvailableLots: 13
LotType: C
TotalLots: 140
-----------------------------------
CarParkID: J16
Address: BLK 301/304 JURONG EAST STREET 32
CarParkType: SURFACE CAR PARK
Latitude: 1.344400
Longitude: 103.735643
AvailableLots: 78
LotType: C
TotalLots: 212
-----------------------------------
CarParkID: E0023
Address: EAST COAST PARK E3 OFF STREET
CarParkType: SURFACE CAR PARK
Latitude: 1.308649
Longitude: 103.936244
AvailableLots: 40
LotType: C
TotalLots: 
-----------------------------------
CarParkID: TJ37
Address: BLK 337 TAH CHING ROAD
CarParkType: MULTI-STOREY CAR PARK
Latitude: 1.338282
Longitude: 103.722528
AvailableLots: 384
LotType: C
TotalLots: 384
-----------------------------------
CarParkID: SK67
Address: BLK 266 COMPASSVALE BOW
CarParkType: MULTI-STOREY CAR PARK
Latitude: 1.381947
Longitude: 103.897095
AvailableLots: 426
LotType: C
TotalLots: 564
-----------------------------------
CarParkID: CTM1
Address: BLK 441 COMMONWEALTH AVENUE WEST
CarParkType: MULTI-STOREY CAR PARK
Latitude: 1.314744
Longitude: 103.764073
AvailableLots: 160
LotType: C
TotalLots: 266
-----------------------------------
CarParkID: PDC5
Address: BLK 533A CHOA CHU KANG ST 51
CarParkType: SURFACE/MULTI-STOREY CAR PARK
Latitude: 1.391575
Longitude: 103.743370
AvailableLots: 147
LotType: C
TotalLots: 185
-----------------------------------
CarParkID: B65L
Address: BLK 152A BEDOK SOUTH ROAD
CarParkType: SURFACE CAR PARK
Latitude: 1.318233
Longitude: 103.947619
AvailableLots: 0
LotType: C
TotalLots: 4
-----------------------------------
CarParkID: A82
Address: BLK 173/176 ANG MO KIO AVENUE 4
CarParkType: 
Latitude: 1.375675
Longitude: 103.836399
AvailableLots: 51
LotType: C
TotalLots: 201
-----------------------------------
CarParkID: J21
Address: BLK 317/328 JURONG EAST STREET 31
CarParkType: SURFACE CAR PARK
Latitude: 1.349063
Longitude: 103.729869
AvailableLots: 181
LotType: C
TotalLots: 702
-----------------------------------
CarParkID: DWST
Address: BLK 89A DAWSON ROAD
CarParkType: MULTI-STOREY CAR PARK
Latitude: 1.295186
Longitude: 103.811989
AvailableLots: 0
LotType: C
TotalLots: 4
-----------------------------------
CarParkID: S40L
Address: BLK 115B AND 115C CANBERRA WALK
CarParkType: SURFACE CAR PARK
Latitude: 1.446517
Longitude: 103.829732
AvailableLots: 4
LotType: C
TotalLots: 4
-----------------------------------
CarParkID: J23
Address: BLK 334/341 JURONG EAST AVENUE 1
CarParkType: SURFACE CAR PARK
Latitude: 1.350028
Longitude: 103.732016
AvailableLots: 40
LotType: C
TotalLots: 299
-----------------------------------
CarParkID: B17
Address: BLK 52/57 NEW UPPER CHANGI ROAD
CarParkType: 
Latitude: 1.324218
Longitude: 103.941857
AvailableLots: 156
LotType: C
TotalLots: 385
-----------------------------------
CarParkID: BJ41
Address: BLK 152A GANGSA ROAD
CarParkType: MULTI-STOREY CAR PARK
Latitude: 1.375511
Longitude: 103.765454
AvailableLots: 172
LotType: C
TotalLots: 389
-----------------------------------
CarParkID: J0017
Address: JOO CHIAT ROAD OFF STREET
CarParkType: SURFACE CAR PARK
Latitude: 1.308931
Longitude: 103.903426
AvailableLots: 26
LotType: Y
TotalLots: 
-----------------------------------
CarParkID: P17
Address: BLK 409/411 PANDAN GARDENS
CarParkType: SURFACE CAR PARK
Latitude: 1.318821
Longitude: 103.747384
AvailableLots: 48
LotType: C
TotalLots: 135
-----------------------------------
CarParkID: J62
Address: BLK 902/908 JURONG WEST STREET 91
CarParkType: SURFACE CAR PARK
Latitude: 1.340889
Longitude: 103.685407
AvailableLots: 500
LotType: C
TotalLots: 700
-----------------------------------
CarParkID: CM1
Address: BLK 10 CANTONMENT CLOSE
CarParkType: MULTI-STOREY CAR PARK
Latitude: 1.274457
Longitude: 103.839216
AvailableLots: 687
LotType: C
TotalLots: 962
-----------------------------------
CarParkID: MR7
Address: BLK 801/802 FRENCH ROAD
CarParkType: SURFACE CAR PARK
Latitude: 1.307562
Longitude: 103.860392
AvailableLots: 45
LotType: C
TotalLots: 105
-----------------------------------
CarParkID: J26
Address: BLK 351/353 JURONG EAST STREET 31
CarParkType: SURFACE CAR PARK
Latitude: 1.344921
Longitude: 103.730596
AvailableLots: 11
LotType: C
TotalLots: 31
-----------------------------------
CarParkID: M0078
Address: MARITIME SQUARE D OFF STREET
CarParkType: SURFACE CAR PARK
Latitude: 1.266557
Longitude: 103.820371
AvailableLots: 213
LotType: C
TotalLots: 
-----------------------------------
CarParkID: C36
Address: BLK 728/729 CLEMENTI WEST STREET 2
CarParkType: 
Latitude: 1.305310
Longitude: 103.763557
AvailableLots: 17
LotType: C
TotalLots: 86
-----------------------------------
CarParkID: TBM4
Address: BLK 88A TELOK BLANGAH HEIGHTS
CarParkType: MULTI-STOREY CAR PARK
Latitude: 1.277296
Longitude: 103.807767
AvailableLots: 346
LotType: C
TotalLots: 503
-----------------------------------
CarParkID: TM21
Address: BLK 340A TAMPINES STREET 33
CarParkType: MULTI-STOREY CAR PARK
Latitude: 1.351413
Longitude: 103.960474
AvailableLots: 142
LotType: C
TotalLots: 338
-----------------------------------
CarParkID: PP6
Address: BLK 146 POTONG PASIR AVENUE 2
CarParkType: SURFACE CAR PARK
Latitude: 1.332283
Longitude: 103.867614
AvailableLots: 16
LotType: C
TotalLots: 111
-----------------------------------
CarParkID: CK6
Address: BLK 143, 144 & 146 TECK WHYE LANE
CarParkType: SURFACE CAR PARK
Latitude: 1.380732
Longitude: 103.753105
AvailableLots: 21
LotType: C
TotalLots: 40
-----------------------------------
CarParkID: NT9
Address: BLK 641 TAMPINES STREET 62
CarParkType: MULTI-STOREY CAR PARK
Latitude: 1.366708
Longitude: 103.944164
AvailableLots: 283
LotType: C
TotalLots: 862
-----------------------------------
CarParkID: BE5
Address: BLK 117-134 BISHAN STREET 12
CarParkType: 
Latitude: 1.346177
Longitude: 103.850961
AvailableLots: 238
LotType: C
TotalLots: 647
-----------------------------------
CarParkID: A81
Address: BLK 170/172 ANG MO KIO STREET 13
CarParkType: 
Latitude: 1.374356
Longitude: 103.836479
AvailableLots: 10
LotType: C
TotalLots: 118
-----------------------------------
CarParkID: BBB
Address: BLK 231 BRAS BASAH BASEMENT CAR PARK
CarParkType: 
Latitude: 1.296580
Longitude: 103.853663
AvailableLots: 135
LotType: C
TotalLots: 193
-----------------------------------
CarParkID: W14
Address: BLK 210/218 MARSILING CRESCENT
CarParkType: SURFACE CAR PARK
Latitude: 1.447052
Longitude: 103.772974
AvailableLots: 98
LotType: C
TotalLots: 328
-----------------------------------
CarParkID: PM43
Address: BLK 757A PASIR RIS STREET 71
CarParkType: MULTI-STOREY CAR PARK
Latitude: 1.377236
Longitude: 103.933136
AvailableLots: 134
LotType: C
TotalLots: 340
-----------------------------------
CarParkID: PM9
Address: BLK 216A PASIR RIS STREET 21
CarParkType: MULTI-STOREY CAR PARK
Latitude: 1.368291
Longitude: 103.961216
AvailableLots: 0
LotType: C
TotalLots: 220
-----------------------------------
CarParkID: HG85
Address: DEFU LANE 6
CarParkType: SURFACE CAR PARK
Latitude: 1.360259
Longitude: 103.899472
AvailableLots: 
LotType: 
TotalLots: 
-----------------------------------
CarParkID: Q72
Address: BLK 96 COMMONWEALTH CRESCENT
CarParkType: SURFACE CAR PARK
Latitude: 1.306492
Longitude: 103.800897
AvailableLots: 
LotType: 
TotalLots: 
-----------------------------------
CarParkID: K0037
Address: KING GEORGES AVENUE OFF STREET
CarParkType: SURFACE CAR PARK
Latitude: 1.310288
Longitude: 103.861555
AvailableLots: 21
LotType: C
TotalLots: 
-----------------------------------
CarParkID: U39
Address: BLK 631 BUKIT BATOK CENTRAL
CarParkType: MULTI-STOREY CAR PARK
Latitude: 1.349759
Longitude: 103.750989
AvailableLots: 221
LotType: C
TotalLots: 248
-----------------------------------
CarParkID: RHM4
Address: BLK 74 REDHILL ROAD
CarParkType: MULTI-STOREY CAR PARK
Latitude: 1.287988
Longitude: 103.815817
AvailableLots: 94
LotType: C
TotalLots: 50
-----------------------------------
CarParkID: BM31
Address: BLK 119 BUKIT MERAH CENTRAL
CarParkType: MULTI-STOREY CAR PARK
Latitude: 1.282448
Longitude: 103.816575
AvailableLots: 564
LotType: C
TotalLots: 622
-----------------------------------
CarParkID: S38L
Address: BLK 128A, 128B, 129A AND 130A CANBERRA STREET/CANBERRA CRESCENT
CarParkType: SURFACE CAR PARK
Latitude: 1.445588
Longitude: 103.832827
AvailableLots: 3
LotType: C
TotalLots: 8
-----------------------------------
CarParkID: A23
Address: BLK 347A ANG MO KIO AVENUE 3
CarParkType: MULTI-STOREY CAR PARK
Latitude: 1.367335
Longitude: 103.848913
AvailableLots: 
LotType: 
TotalLots: 
-----------------------------------
CarParkID: H4
Address: BLK 22 HAVELOCK ROAD
CarParkType: 
Latitude: 1.288094
Longitude: 103.829371
AvailableLots: 86
LotType: C
TotalLots: 102
-----------------------------------
CarParkID: BKE1
Address: BLK 668 CHANDER ROAD
CarParkType: SURFACE CAR PARK
Latitude: 1.307818
Longitude: 103.851596
AvailableLots: 0
LotType: C
TotalLots: 22
-----------------------------------
CarParkID: BJ70
Address: BLK 646 SENJA CLOSE
CarParkType: MULTI-STOREY CAR PARK
Latitude: 1.389547
Longitude: 103.763770
AvailableLots: 
LotType: 
TotalLots: 
-----------------------------------
CarParkID: CK61
Address: BLK 686 CHOA CHU KANG CRESCENT
CarParkType: MULTI-STOREY CAR PARK
Latitude: 1.404089
Longitude: 103.748917
AvailableLots: 965
LotType: C
TotalLots: 1272
-----------------------------------
CarParkID: CK63
Address: BLK 689 CHOA CHU KANG CRESCENT
CarParkType: MULTI-STOREY CAR PARK
Latitude: 1.402863
Longitude: 103.750884
AvailableLots: 429
LotType: C
TotalLots: 866
-----------------------------------
CarParkID: C40L
Address: BLK 801A TO 801C WEST COAST CRESCENT
CarParkType: SURFACE CAR PARK
Latitude: 1.300790
Longitude: 103.763889
AvailableLots: 2
LotType: C
TotalLots: 6
-----------------------------------
CarParkID: AK31
Address: BLK 302/348 ANG MO KIO STREET 31
CarParkType: SURFACE CAR PARK
Latitude: 1.366120
Longitude: 103.846635
AvailableLots: 
LotType: 
TotalLots: 
-----------------------------------
CarParkID: J77M
Address: BLK 750A JURONG WEST STREET 73
CarParkType: MULTI-STOREY CAR PARK
Latitude: 1.347445
Longitude: 103.698560
AvailableLots: 192
LotType: C
TotalLots: 350
-----------------------------------
CarParkID: Y15
Address: BLK 227/235 YISHUN STREET 21
CarParkType: SURFACE CAR PARK
Latitude: 1.434647
Longitude: 103.836814
AvailableLots: 91
LotType: C
TotalLots: 308
-----------------------------------
CarParkID: SB4
Address: BLK 313A SEMBAWANG DRIVE
CarParkType: MULTI-STOREY CAR PARK
Latitude: 1.444079
Longitude: 103.821273
AvailableLots: 161
LotType: C
TotalLots: 272
-----------------------------------
CarParkID: SK10
Address: BLK 241A COMPASSVALE WALK
CarParkType: MULTI-STOREY CAR PARK
Latitude: 1.390263
Longitude: 103.898236
AvailableLots: 213
LotType: C
TotalLots: 394
-----------------------------------
CarParkID: GE1F
Address: BLK 107-108 ALJUNIED CRESCENT
CarParkType: SURFACE CAR PARK
Latitude: 1.319209
Longitude: 103.884235
AvailableLots: 19
LotType: C
TotalLots: 50
-----------------------------------
CarParkID: CLM
Address: BLK 129A CLARENCE LANE
CarParkType: MULTI-STOREY CAR PARK
Latitude: 1.292482
Longitude: 103.814400
AvailableLots: 170
LotType: C
TotalLots: 245
-----------------------------------
CarParkID: BJ68
Address: BLK 422A FAJAR ROAD
CarParkType: MULTI-STOREY CAR PARK
Latitude: 1.385381
Longitude: 103.769970
AvailableLots: 120
LotType: C
TotalLots: 253
-----------------------------------
CarParkID: TJ34
Address: BLK 115A HO CHING ROAD
CarParkType: MULTI-STOREY CAR PARK
Latitude: 1.334020
Longitude: 103.724540
AvailableLots: 195
LotType: C
TotalLots: 350
-----------------------------------
CarParkID: A66
Address: BLK 601/604/603 ANG MO KIO AVENUE 5
CarParkType: 
Latitude: 1.380545
Longitude: 103.835661
AvailableLots: 24
LotType: C
TotalLots: 149
-----------------------------------
CarParkID: B80
Address: BLK 739A BEDOK RESERVOIR ROAD
CarParkType: 
Latitude: 1.338268
Longitude: 103.923361
AvailableLots: 229
LotType: C
TotalLots: 250
-----------------------------------
CarParkID: HG10
Address: BLK 101-108 HOUGANG AVENUE 1
CarParkType: SURFACE CAR PARK
Latitude: 1.354547
Longitude: 103.890483
AvailableLots: 113
LotType: C
TotalLots: 248
-----------------------------------
CarParkID: KB11
Address: BLK 34 WHAMPOA WEST
CarParkType: SURFACE CAR PARK
Latitude: 1.320582
Longitude: 103.863722
AvailableLots: 111
LotType: C
TotalLots: 209
-----------------------------------
CarParkID: TM3
Address: BLK 496A TAMPINES STREET 43
CarParkType: MULTI-STOREY CAR PARK
Latitude: 1.361262
Longitude: 103.950565
AvailableLots: 215
LotType: C
TotalLots: 428
-----------------------------------
CarParkID: U50
Address: BLK 230A BUKIT BATOK ST 21 BUKIT BATOK STREET 21
CarParkType: SURFACE CAR PARK
Latitude: 1.347341
Longitude: 103.755651
AvailableLots: 26
LotType: C
TotalLots: 38
-----------------------------------
CarParkID: BJ53
Address: BLK 480A SEGAR ROAD
CarParkType: MULTI-STOREY CAR PARK
Latitude: 1.389802
Longitude: 103.771932
AvailableLots: 709
LotType: C
TotalLots: 1064
-----------------------------------
CarParkID: 13
Address: Ngee Ann City
CarParkType: MULTI-STOREY CAR PARK
Latitude: 1.302360
Longitude: 103.834900
AvailableLots: 1132
LotType: C
TotalLots: 
-----------------------------------
CarParkID: CK9A
Address: BLK 228-239 CHOA CHU KANG CENTRAL
CarParkType: SURFACE CAR PARK
Latitude: 1.379988
Longitude: 103.747503
AvailableLots: 59
LotType: C
TotalLots: 372
-----------------------------------
CarParkID: Y57
Address: BLK 415/417 YISHUN RING ROAD/AVENUE 11
CarParkType: SURFACE CAR PARK
Latitude: 1.423991
Longitude: 103.846447
AvailableLots: 0
LotType: C
TotalLots: 18
-----------------------------------
CarParkID: TE9
Address: BLK 61/69 SENG POH LANE
CarParkType: SURFACE CAR PARK
Latitude: 1.283876
Longitude: 103.832972
AvailableLots: 118
LotType: C
TotalLots: 126
-----------------------------------
CarParkID: PL61
Address: BLK 678 PUNGGOL DRIVE
CarParkType: MULTI-STOREY CAR PARK
Latitude: 1.406114
Longitude: 103.908890
AvailableLots: 375
LotType: C
TotalLots: 938
-----------------------------------
CarParkID: Y70M
Address: BLK 506 YISHUN AVENUE 4
CarParkType: MULTI-STOREY CAR PARK
Latitude: 1.414859
Longitude: 103.840351
AvailableLots: 533
LotType: C
TotalLots: 1248
-----------------------------------
CarParkID: HG59
Address: DEFU LANE 9
CarParkType: SURFACE CAR PARK
Latitude: 1.350882
Longitude: 103.893319
AvailableLots: 
LotType: 
TotalLots: 
-----------------------------------
CarParkID: TBK
Address: BLK 84 TELOK BLANGAH HEIGHTS
CarParkType: SURFACE CAR PARK
Latitude: 1.277360
Longitude: 103.810047
AvailableLots: 
LotType: 
TotalLots: 
-----------------------------------
CarParkID: J80M
Address: BLK 734A JURONG WEST STREET 73
CarParkType: MULTI-STOREY CAR PARK
Latitude: 1.345547
Longitude: 103.700969
AvailableLots: 145
LotType: C
TotalLots: 441
-----------------------------------
CarParkID: PP4
Address: BLK 121 TO 133 POTONG PASIR AVENUE 1
CarParkType: SURFACE CAR PARK
Latitude: 1.334732
Longitude: 103.866119
AvailableLots: 1
LotType: C
TotalLots: 166
-----------------------------------
CarParkID: TPM4
Address: BLK 81C LORONG 4 TOA PAYOH
CarParkType: MULTI-STOREY CAR PARK
Latitude: 1.335753
Longitude: 103.849346
AvailableLots: 128
LotType: C
TotalLots: 343
-----------------------------------
CarParkID: U48
Address: BLK 350 BUKIT BATOK STREET 32
CarParkType: SURFACE CAR PARK
Latitude: 1.361434
Longitude: 103.748770
AvailableLots: 39
LotType: C
TotalLots: 93
-----------------------------------
CarParkID: BM19
Address: BLK 88/89 REDHILL CLOSE
CarParkType: SURFACE CAR PARK
Latitude: 1.285712
Longitude: 103.818702
AvailableLots: 4
LotType: C
TotalLots: 36
-----------------------------------
CarParkID: TPML
Address: BLK 233A LORONG 8 TOA PAYOH
CarParkType: MULTI-STOREY CAR PARK
Latitude: 1.338225
Longitude: 103.858923
AvailableLots: 105
LotType: C
TotalLots: 266
-----------------------------------
CarParkID: SD4
Address: BLK 52 SIMS PLACE
CarParkType: SURFACE CAR PARK
Latitude: 1.316578
Longitude: 103.880241
AvailableLots: 15
LotType: C
TotalLots: 41
-----------------------------------
CarParkID: W65
Address: BLK 701A WOODLANDS DRIVE 40
CarParkType: MULTI-STOREY CAR PARK
Latitude: 1.441136
Longitude: 103.795979
AvailableLots: 108
LotType: C
TotalLots: 360
-----------------------------------
CarParkID: BJ1
Address: BLK 130-140 CASHEW ROAD
CarParkType: 
Latitude: 1.373957
Longitude: 103.769323
AvailableLots: 140
LotType: C
TotalLots: 494
-----------------------------------
CarParkID: HG69
Address: BLK 850A HOUGANG CENTRAL
CarParkType: MULTI-STOREY CAR PARK
Latitude: 1.369980
Longitude: 103.892969
AvailableLots: 58
LotType: C
TotalLots: 187
-----------------------------------
CarParkID: J33
Address: BLK 518/520 JURONG WEST STREET 52
CarParkType: SURFACE CAR PARK
Latitude: 1.345774
Longitude: 103.717880
AvailableLots: 46
LotType: C
TotalLots: 129
-----------------------------------
CarParkID: T42
Address: BLK 824/827 TAMPINES STREET 81
CarParkType: SURFACE CAR PARK
Latitude: 1.349288
Longitude: 103.932724
AvailableLots: 32
LotType: C
TotalLots: 86
-----------------------------------
CarParkID: CK47
Address: BLK 787A CHOA CHU KANG DRIVE
CarParkType: MULTI-STOREY CAR PARK
Latitude: 1.395239
Longitude: 103.747699
AvailableLots: 533
LotType: C
TotalLots: 695
-----------------------------------
CarParkID: Y20
Address: BLK 293/294 YISHUN STREET 22
CarParkType: SURFACE CAR PARK
Latitude: 1.436261
Longitude: 103.837856
AvailableLots: 32
LotType: C
TotalLots: 60
-----------------------------------
CarParkID: HG92
Address: BLK 373A HOUGANG STREET 31
CarParkType: MULTI-STOREY CAR PARK
Latitude: 1.362298
Longitude: 103.890031
AvailableLots: 648
LotType: C
TotalLots: 1010
-----------------------------------
CarParkID: PDW7
Address: BLK 768 WOODLANDS AVE 6
CarParkType: SURFACE/MULTI-STOREY CAR PARK
Latitude: 1.445462
Longitude: 103.798060
AvailableLots: 169
LotType: C
TotalLots: 171
-----------------------------------
CarParkID: L1
Address: BLK 415-420 LORONG LEW LIAN
CarParkType: 
Latitude: 1.349506
Longitude: 103.875355
AvailableLots: 29
LotType: C
TotalLots: 178
-----------------------------------
CarParkID: W527
Address: BLK 527A WOODLANDS DRIVE 14
CarParkType: MULTI-STOREY CAR PARK
Latitude: 1.431970
Longitude: 103.792556
AvailableLots: 345
LotType: C
TotalLots: 660
-----------------------------------
CarParkID: B50A
Address: BLK 606/610 BEDOK RESERVOIR ROAD
CarParkType: SURFACE CAR PARK
Latitude: 1.331512
Longitude: 103.912735
AvailableLots: 
LotType: 
TotalLots: 
-----------------------------------
CarParkID: BE33
Address: BLK 238-245 BISHAN STREET 22
CarParkType: SURFACE CAR PARK
Latitude: 1.360170
Longitude: 103.844820
AvailableLots: 72
LotType: C
TotalLots: 269
-----------------------------------
CarParkID: B92
Address: BLK 2A BEDOK SOUTH AVENUE 1
CarParkType: 
Latitude: 1.321697
Longitude: 103.933935
AvailableLots: 405
LotType: C
TotalLots: 757
-----------------------------------
CarParkID: BJ65
Address: BLK 632 SENJA ROAD
CarParkType: MULTI-STOREY CAR PARK
Latitude: 1.384703
Longitude: 103.758761
AvailableLots: 44
LotType: C
TotalLots: 224
-----------------------------------
CarParkID: TP4A
Address: BLK 4A LORONG 7 TOA PAYOH
CarParkType: MULTI-STOREY CAR PARK
Latitude: 1.339271
Longitude: 103.855529
AvailableLots: 154
LotType: C
TotalLots: 296
-----------------------------------
CarParkID: Q80
Address: BLK 45/46/47 HOLLAND DRIVE
CarParkType: SURFACE CAR PARK
Latitude: 1.308536
Longitude: 103.792701
AvailableLots: 22
LotType: C
TotalLots: 31
-----------------------------------
CarParkID: SI10
Address: BLK 148 - 154 SIMEI STREET 1
CarParkType: SURFACE CAR PARK
Latitude: 1.345569
Longitude: 103.957123
AvailableLots: 85
LotType: C
TotalLots: 266
-----------------------------------
CarParkID: PL47
Address: BLK 207 PUNGGOL PLACE
CarParkType: MULTI-STOREY CAR PARK
Latitude: 1.400626
Longitude: 103.900916
AvailableLots: 0
LotType: C
TotalLots: 114
-----------------------------------
CarParkID: TE21
Address: BLK 76 GUAN CHUAN STREET
CarParkType: SURFACE CAR PARK
Latitude: 1.282990
Longitude: 103.831584
AvailableLots: 
LotType: 
TotalLots: 
-----------------------------------
CarParkID: A34
Address: BLK 422/425 ANG MO KIO STREET 42
CarParkType: 
Latitude: 1.368356
Longitude: 103.851667
AvailableLots: 94
LotType: C
TotalLots: 220
-----------------------------------
CarParkID: TWM6
Address: BLK 161 JALAN TECK WHYE
CarParkType: MULTI-STOREY CAR PARK
Latitude: 1.380093
Longitude: 103.758187
AvailableLots: 77
LotType: C
TotalLots: 224
-----------------------------------
CarParkID: W574
Address: BLK 574 WOODLANDS DRIVE 16
CarParkType: MULTI-STOREY CAR PARK
Latitude: 1.430588
Longitude: 103.798443
AvailableLots: 246
LotType: C
TotalLots: 479
-----------------------------------
CarParkID: 20
Address: Far East Plaza
CarParkType: MULTI-STOREY CAR PARK
Latitude: 1.307100
Longitude: 103.833590
AvailableLots: 494
LotType: C
TotalLots: 
-----------------------------------
CarParkID: TP22
Address: BLK 148 TO 150 LORONG 1 TOA PAYOH
CarParkType: SURFACE CAR PARK
Latitude: 1.334200
Longitude: 103.844042
AvailableLots: 96
LotType: C
TotalLots: 183
-----------------------------------
CarParkID: JCML
Address: BLK 2 JOO CHIAT ROAD
CarParkType: SURFACE CAR PARK
Latitude: 1.315154
Longitude: 103.898634
AvailableLots: 2
LotType: C
TotalLots: 2
-----------------------------------
CarParkID: Y71M
Address: BLK 501 YISHUN STREET 51
CarParkType: MULTI-STOREY CAR PARK
Latitude: 1.416522
Longitude: 103.840882
AvailableLots: 138
LotType: C
TotalLots: 423
-----------------------------------
CarParkID: J49
Address: BLK 552/559 JURONG WEST STREET 42
CarParkType: SURFACE CAR PARK
Latitude: 1.353455
Longitude: 103.718949
AvailableLots: 558
LotType: C
TotalLots: 922
-----------------------------------
CarParkID: TM54
Address: BLK 875A TAMPINES STREET 86
CarParkType: MULTI-STOREY CAR PARK
Latitude: 1.353529
Longitude: 103.929922
AvailableLots: 86
LotType: C
TotalLots: 265
-----------------------------------
CarParkID: PDL2
Address: 681 PUNGGOL DR
CarParkType: BASEMENT CAR PARK
Latitude: 1.402866
Longitude: 103.913097
AvailableLots: 276
LotType: C
TotalLots: 278
-----------------------------------
CarParkID: W93
Address: BLK 639A WOODLANDS RING ROAD
CarParkType: MULTI-STOREY CAR PARK
Latitude: 1.437782
Longitude: 103.802591
AvailableLots: 300
LotType: C
TotalLots: 447
-----------------------------------
CarParkID: HG35
Address: BLK 701-702,707-710 HOUGANG AVENUE 2
CarParkType: SURFACE CAR PARK
Latitude: 1.366489
Longitude: 103.888963
AvailableLots: 69
LotType: C
TotalLots: 315
-----------------------------------
CarParkID: SM8
Address: BLK 22A SIN MING ROAD
CarParkType: MULTI-STOREY CAR PARK
Latitude: 1.357327
Longitude: 103.839033
AvailableLots: 
LotType: 
TotalLots: 
-----------------------------------
CarParkID: B40
Address: BLK 504/508 BEDOK NORTH STREET 3
CarParkType: 
Latitude: 1.332550
Longitude: 103.932770
AvailableLots: 257
LotType: C
TotalLots: 540
-----------------------------------
CarParkID: PM16
Address: BLK 149A PASIR RIS STREET 13
CarParkType: MULTI-STOREY CAR PARK
Latitude: 1.362358
Longitude: 103.962720
AvailableLots: 73
LotType: C
TotalLots: 245
-----------------------------------
CarParkID: PR2
Address: BLK 109/129 PASIR RIS STREET 11
CarParkType: SURFACE CAR PARK
Latitude: 1.367274
Longitude: 103.955442
AvailableLots: 173
LotType: C
TotalLots: 791
-----------------------------------
CarParkID: Y32
Address: BLK 858/864 YISHUN AVENUE 4
CarParkType: SURFACE CAR PARK
Latitude: 1.417485
Longitude: 103.838599
AvailableLots: 124
LotType: C
TotalLots: 382
-----------------------------------
CarParkID: B10M
